City_ID,City,Lat,Lng,Max Temp,Humidity,Cloudiness,Wind Speed,Country,Date
0,queenstown,-31.8976,26.8753,11.38,90,100,2.15,ZA,1702234518
1,jamestown,42.097,-79.2353,4.77,84,100,3.09,US,1702234212
2,bethel,41.3712,-73.414,14.07,91,100,2.57,US,1702234443
3,whitehorse,60.7161,-135.0538,-16.22,82,75,1.03,CA,1702234472
4,isafjordur,66.0755,-23.124,-1.98,74,40,1.54,IS,1702234459
5,kingston,17.997,-76.7936,32.36,58,20,9.26,JM,1702234298
6,segovia,41.1667,-4.0,8.02,92,88,3.04,ES,1702234520
7,santa ana de yacuma,-13.75,-65.4333,34.97,49,75,6.17,BO,1702234520
8,chinde,26.8418,88.0763,10.15,75,33,1.58,NP,1702234521
9,vilyuchinsk,52.9306,158.4028,1.15,100,100,7.66,RU,1702234468
10,papatowai,-46.5619,169.4708,10.07,63,20,2.83,NZ,1702234483
11,kapuskasing,49.4169,-82.4331,-4.95,86,100,6.17,CA,1702234322
12,waitangi,-43.9535,-176.5597,12.12,88,0,0.45,NZ,1702234441
13,dudinka,69.4058,86.1778,-27.99,97,100,5.36,RU,1702234494
14,selfoss,63.9331,-20.9971,-2.2,78,100,2.53,IS,1702234523
15,edinburgh of the seven seas,-37.0676,-12.3116,13.42,69,100,6.34,SH,1702234441
16,aasiaat,68.7098,-52.8699,-5.71,95,100,7.44,GL,1702234524
17,longyearbyen,78.2186,15.6401,-0.09,69,75,6.69,SJ,1702234256
18,tinajo,29.0788,-13.7081,21.49,68,0,1.54,ES,1702234524
19,christchurch,-43.5333,172.6333,12.75,72,6,2.06,NZ,1702233995
20,blackmans bay,-43.0167,147.3167,10.41,78,95,0.45,AU,1702234459
21,lompoc,34.6391,-120.4579,20.99,44,0,3.09,US,1702234525
22,uturoa,-16.7333,-151.4333,26.82,81,59,10.14,PF,1702234526
23,chonchi,-42.6128,-73.8092,18.56,60,99,1.31,CL,1702234469
24,port-aux-francais,-49.35,70.2167,3.47,76,41,10.26,TF,1702234451
25,college,64.8569,-147.8028,-21.17,70,75,1.54,US,1702234480
26,ribeira grande,38.5167,-28.7,18.22,77,40,7.72,PT,1702234349
27,juneau,58.3019,-134.4197,1.0,95,100,3.6,US,1702234347
28,venice,27.0998,-82.4543,27.93,81,75,7.72,US,1702234424
29,arawa,-6.2132,155.5367,24.83,93,100,0.86,PG,1702234528
30,ushuaia,-54.8,-68.3,9.81,50,0,9.26,AR,1702234449
31,kodiak,57.79,-152.4072,0.73,100,100,1.54,US,1702234272
32,adamstown,-25.066,-130.1015,20.92,60,0,4.45,PN,1702234441
33,albany,42.6001,-73.9662,12.75,90,100,0.89,US,1702234411
34,demba,-5.51,22.2667,21.93,82,100,0.48,CD,1702234530
35,long beach,33.767,-118.1892,24.1,19,0,2.06,US,1702234531
36,alwar,27.5667,76.6,15.28,34,5,1.01,IN,1702234531
37,puerto natales,-51.7236,-72.4875,11.25,62,75,8.23,CL,1702234440
38,dongfeng,42.6403,125.5118,-13.39,39,100,4.08,CN,1702234532
39,port mathurin,-19.6833,63.4167,26.4,75,55,3.76,MU,1702234492
40,kurchatov,51.6601,35.6521,-3.66,95,100,4.28,RU,1702234533
41,fruita,39.1589,-108.729,1.99,52,100,2.06,US,1702234533
42,keflavik,64.0049,-22.5624,2.24,75,75,5.14,IS,1702234328
43,humaita,-7.5061,-63.0208,35.84,39,77,0.92,BR,1702234535
44,grytviken,-54.2811,-36.5092,5.97,82,100,6.33,GS,1702234457
45,aykhal,66.0,111.5,-28.16,99,100,1.77,RU,1702234365
46,puerto ayora,-0.7393,-90.3518,28.98,76,31,4.35,EC,1702234442
47,namibe,-15.1961,12.1522,23.04,78,33,3.75,AO,1702234456
48,bubaque,11.2833,-15.8333,30.17,49,100,1.15,GW,1702234537
49,minas de marcona,-15.2119,-75.1103,21.3,56,100,5.83,PE,1702234371
50,brokopondo,4.75,-55.1667,31.5,54,99,1.23,SR,1702234538
51,mount isa,-20.7333,139.5,23.87,46,100,7.72,AU,1702234538
52,hermanus,-34.4187,19.2345,18.42,70,0,6.11,ZA,1702234450
53,meiganga,6.5167,14.3,23.65,31,2,2.36,CM,1702234539
54,machico,32.7,-16.7667,22.23,88,75,1.03,PT,1702234539
55,gandorhun,7.5,-11.8333,26.56,72,100,2.18,SL,1702234539
56,fayroz koh,34.5195,65.2509,2.28,32,0,2.14,AF,1702234540
57,mil'kovo,55.6078,37.7956,-9.25,94,100,4.96,RU,1702234540
58,norilsk,69.3535,88.2027,-28.1,99,100,2.55,RU,1702234541
59,lonar,19.9833,76.5333,18.74,58,1,1.67,IN,1702234541
60,iqaluit,63.7506,-68.5145,-5.15,85,100,4.63,CA,1702234450
61,tofol,5.3248,163.0078,27.84,78,36,6.65,FM,1702234542
62,stanley,54.868,-1.6985,6.82,94,40,3.6,GB,1702234315
63,kirakira,-10.4544,161.9205,25.42,88,100,1.3,SB,1702234543
64,gadzhiyevo,69.2551,33.3362,-11.12,85,100,8.74,RU,1702234460
65,rikaze,29.25,88.8833,-0.92,40,0,1.55,CN,1702234543
66,porto novo,6.4965,2.6036,28.9,80,1,3.26,BJ,1702234482
67,punta del este,-34.9667,-54.95,25.06,73,20,6.17,UY,1702234544
68,diss,52.3768,1.1091,9.99,95,2,9.35,GB,1702234544
69,la passe,45.5549,-0.8967,15.13,94,100,9.92,FR,1702234475
70,utrik,11.2278,169.8474,27.21,74,31,10.21,MH,1702234545
71,port alfred,-33.5906,26.891,16.77,90,18,2.54,ZA,1702234446
72,bredasdorp,-34.5322,20.0403,17.39,72,0,4.65,ZA,1702234330
73,saipan,15.1355,145.701,27.39,83,40,4.12,MP,1702234546
74,talakan,50.3167,130.3667,-26.07,95,24,2.93,RU,1702234546
75,invercargill,-46.4,168.35,8.21,68,31,3.28,NZ,1702234244
76,taber,49.8167,-112.1518,1.24,66,0,6.96,CA,1702234349
77,verkhnevilyuysk,63.4453,120.3167,-28.56,96,99,3.12,RU,1702234547
78,cold lake,54.4502,-110.2017,-7.03,93,75,2.57,CA,1702234548
79,tiksi,71.6872,128.8694,-23.58,99,100,1.7,RU,1702234453
80,thompson,55.7435,-97.8558,-15.91,85,75,2.06,CA,1702234502
81,boguchany,58.3814,97.4531,-33.97,100,35,0.89,RU,1702234549
82,broken hill,-31.95,141.4333,25.61,42,100,1.12,AU,1702234549
83,richfield,44.8833,-93.283,-3.55,83,100,2.06,US,1702234355
84,ilulissat,69.2167,-51.1,-3.99,74,100,8.23,GL,1702234447
85,midvagur,62.0511,-7.1939,7.46,81,100,4.12,FO,1702234550
86,bonthe,7.5264,-12.505,27.67,75,57,3.37,SL,1702234550
87,vorgashor,67.5833,63.95,-25.75,100,100,2.34,RU,1702234409
88,cabo san lucas,22.8909,-109.9124,28.2,62,0,2.06,MX,1702233822
89,motueka,-41.1333,173.0167,13.39,63,0,1.38,NZ,1702234551
90,sumusta as sultani,28.9167,30.85,16.7,37,51,1.9,EG,1702234552
91,monrovia,6.3005,-10.7969,28.87,81,62,4.66,LR,1702234552
92,fale old settlement,-9.3852,-171.2468,27.76,81,100,4.05,TK,1702234553
93,coahuayana de hidalgo,18.7,-103.6583,31.03,47,100,2.13,MX,1702234553
94,touros,-5.1989,-35.4608,28.25,59,14,6.06,BR,1702234553
95,noosa heads,-26.3833,153.15,24.5,67,86,6.59,AU,1702234554
96,hawaiian paradise park,19.5933,-154.9731,24.46,98,100,3.09,US,1702234554
97,acarau,-2.8856,-40.12,29.39,61,39,8.28,BR,1702234315
98,murzuq,25.9155,13.9184,16.69,57,100,6.22,LY,1702234555
99,veinticinco de mayo,-35.4323,-60.1727,30.55,37,0,1.79,AR,1702234555
100,alofi,-19.0595,-169.9187,24.94,88,100,4.12,NU,1702234390
101,rabo de peixe,37.8,-25.5833,17.77,99,75,5.14,PT,1702234556
102,kroya,-7.6331,109.2461,25.88,85,100,2.04,ID,1702234556
103,cedral,23.8,-100.7333,18.01,53,6,4.2,MX,1702234557
104,yuzhno-kurilsk,44.0306,145.8556,0.76,76,100,7.24,RU,1702234471
105,kannur,11.8675,75.3576,25.27,90,88,1.82,IN,1702234557
106,"laikit, laikit ii (dimembe)",1.4792,124.9735,23.47,94,20,1.03,ID,1702234558
107,ola,59.5833,151.2833,-2.14,79,100,10.9,RU,1702234558
108,wailua homesteads,22.0669,-159.378,23.81,87,20,4.63,US,1702234356
109,maumere,-8.6199,122.2111,27.27,75,66,1.65,ID,1702234559
110,northam,51.0333,-4.2167,13.14,88,12,14.36,GB,1702234559
111,margaret river,-33.95,115.0667,14.23,55,0,5.95,AU,1702234321
112,loa janan,-0.583,117.095,23.05,99,100,1.02,ID,1702234560
113,port-saint-louis-du-rhone,43.3833,4.8,10.13,87,0,1.03,FR,1702234560
114,qaqortoq,60.7167,-46.0333,-6.11,75,100,1.23,GL,1702234504
115,nogliki,51.8333,143.1667,-19.81,86,100,5.81,RU,1702234299
116,otjimbingwe,-22.35,16.1333,23.92,30,0,5.72,NA,1702234561
117,quilpue,-33.045,-71.4494,31.1,67,100,7.72,CL,1702234562
118,pakse,15.1167,105.7833,23.44,79,14,0.84,LA,1702234562
119,tura,25.5198,90.2201,14.08,52,0,1.52,IN,1702234445
120,st. john's,47.5649,-52.7093,2.21,82,100,2.24,CA,1702234353
121,olonkinbyen,70.9221,-8.7187,-5.82,53,22,1.41,SJ,1702234446
122,dayton,39.7589,-84.1916,3.55,81,100,5.66,US,1702233915
123,bilibino,68.0546,166.4372,-26.44,99,34,1.83,RU,1702234460
124,lomo de arico,28.1667,-16.4833,22.28,70,0,2.06,ES,1702234565
125,antsiranana,-12.2787,49.2917,26.18,83,77,6.38,MG,1702234565
126,quixada,-4.9714,-39.0153,32.24,41,92,3.09,BR,1702234497
127,plettenberg bay,-34.0527,23.3716,16.24,86,1,3.2,ZA,1702234566
128,hobyo,5.3505,48.5268,26.87,79,10,7.34,SO,1702234566
129,lihue,21.9789,-159.3672,24.14,83,20,4.63,US,1702234368
130,mukalla,14.5425,49.1242,23.76,68,0,0.72,YE,1702234395
131,lycksele,64.5954,18.6735,-10.07,85,75,2.06,SE,1702234567
132,lorengau,-2.0226,147.2712,27.47,84,98,5.5,PG,1702234568
133,bayanaul,50.7889,75.6956,-23.26,90,17,1.54,KZ,1702234568
134,novodvinsk,64.4165,40.8122,-16.14,90,100,5.15,RU,1702234569
135,nuuk,64.1835,-51.7216,-2.66,80,40,2.06,GL,1702234440
136,kostomuksha,64.571,30.5767,-12.2,94,100,4.02,RU,1702234569
137,sabana grande de boya,18.945,-69.7933,28.22,71,65,4.5,DO,1702234570
138,constantia,44.1833,28.65,0.38,81,76,3.94,RO,1702234465
139,reggane,26.7158,0.1714,17.81,34,4,4.48,DZ,1702234571
140,enewetak,11.3474,162.3373,27.63,72,100,7.31,MH,1702234474
141,arraial do cabo,-22.9661,-42.0278,25.92,61,75,7.2,BR,1702234489
142,taro,-8.3862,115.28,23.0,95,100,0.87,ID,1702234572
143,puerto deseado,-47.7503,-65.8938,12.78,66,100,6.85,AR,1702234572
144,chinchilla,-26.75,150.6333,18.59,83,0,3.73,AU,1702234573
145,fort bragg,35.139,-79.006,23.23,80,100,5.66,US,1702234278
146,azangaro,-14.9167,-70.2167,17.25,42,96,4.2,PE,1702234573
147,toliara,-23.35,43.6667,26.05,82,5,3.64,MG,1702234459
148,alesund,62.4723,6.1549,3.08,85,75,4.12,NO,1702234318
149,petropavlovsk-kamchatsky,53.0452,158.6483,0.33,95,100,8.0,RU,1702234482
150,benjamin constant,-4.3831,-70.0311,32.07,66,20,2.06,BR,1702234400
151,lamesa,32.7376,-101.951,10.29,24,6,8.01,US,1702234575
152,carnarvon,-24.8667,113.6333,26.23,25,0,7.91,AU,1702234466
153,san patricio,28.017,-97.5169,16.92,20,0,6.75,US,1702234491
154,badger,64.8,-147.5333,-21.22,74,20,1.54,US,1702234369
155,nabire,-3.3667,135.4833,24.62,85,100,1.37,ID,1702234577
156,avarua,-21.2078,-159.775,26.03,83,75,11.32,CK,1702234577
157,geneina,13.45,22.45,23.48,19,44,3.45,SD,1702234578
158,moroto,2.5345,34.6666,24.35,48,94,2.73,UG,1702234519
159,springbok,-29.6643,17.8865,18.09,38,0,2.9,ZA,1702234579
160,santa catalina,9.3337,122.8637,26.99,87,65,2.84,PH,1702234579
161,urdinarrain,-32.6857,-58.8932,29.26,29,0,3.71,AR,1702234579
162,karratha,-20.7377,116.8463,27.58,22,5,6.82,AU,1702234368
163,viedma,-40.8135,-62.9967,31.5,14,0,1.96,AR,1702234336
164,sao paulo de olivenca,-3.3783,-68.8725,28.71,83,71,1.25,BR,1702234580
165,abashiri,44.0213,144.2697,-2.1,55,100,7.94,JP,1702234482
166,ulmeni,47.4667,23.3,1.19,95,100,0.84,RO,1702234581
167,yellowknife,62.456,-114.3525,-10.88,99,100,6.69,CA,1702234466
168,navas de san juan,38.2351,-3.3538,11.91,74,13,0.19,ES,1702234583
169,westport,41.1415,-73.3579,14.77,93,100,4.63,US,1702234371
170,bulawayo,-20.15,28.5833,19.88,80,46,4.82,ZW,1702234583
171,gandajika,-6.75,23.95,20.67,95,100,0.97,CD,1702234584
172,ulsteinvik,62.3432,5.8487,3.07,90,74,3.13,NO,1702234584
173,madang,-5.2246,145.7966,24.84,94,100,2.78,PG,1702234584
174,olinda,-8.0089,-34.8553,28.85,17,40,3.6,BR,1702234490
175,soio,-6.1349,12.3689,27.25,77,100,4.45,AO,1702234585
176,horta,38.5333,-28.6333,17.8,81,40,8.49,PT,1702234586
177,tolanaro,-25.0319,46.9987,26.04,89,20,9.77,MG,1702234586
178,planaltina,-15.4528,-47.6142,31.18,32,73,2.41,BR,1702234586
179,tazovsky,67.4667,78.7,-29.63,93,100,4.13,RU,1702234587
180,jayapura,-2.5333,140.7,24.66,90,91,2.66,ID,1702234587
181,san antonio de pale,-1.4014,5.6325,27.62,78,100,5.37,GQ,1702234314
182,bel ombre,-4.6167,55.4167,27.91,83,40,2.06,SC,1702234588
183,west island,-12.1568,96.8225,25.99,83,40,4.63,CC,1702234442
184,waddan,29.1614,16.139,14.43,64,0,5.65,LY,1702234589
185,kogalym,62.2654,74.4791,-35.31,97,7,3.01,RU,1702234589
186,daru,-9.0763,143.2092,25.45,86,100,0.9,PG,1702234590
187,talnakh,69.4865,88.3972,-28.22,99,100,3.88,RU,1702234469
188,laojunmiao,39.8333,97.7333,-4.96,56,97,1.77,CN,1702234590
189,lethem,3.3803,-59.7968,33.03,55,40,6.17,GY,1702234591
190,ust-nera,64.5667,143.2,-17.74,98,100,4.07,RU,1702234455
191,punta arenas,-53.15,-70.9167,12.06,32,20,10.8,CL,1702234479
192,kargasok,59.0556,80.8572,-32.24,100,9,2.68,RU,1702234592
193,kibale,0.8,31.0667,16.46,98,65,0.52,UG,1702234592
194,lospalos,-8.5186,127.0025,24.08,88,100,0.44,TL,1702234593
195,dompu,-8.5356,118.4622,25.07,97,100,0.62,ID,1702234593
196,ta`u,-14.2336,-169.5144,23.96,95,100,4.03,AS,1702234594
197,chake chake,-5.2459,39.7666,26.04,84,100,3.32,TZ,1702234594
198,colonia,50.9333,6.95,9.77,84,75,4.63,DE,1702234261
199,almodovar,37.4959,-8.0937,14.71,83,1,0.75,PT,1702234595
200,bhandara,21.1667,79.65,17.23,64,0,2.1,IN,1702234595
201,puerto baquerizo moreno,-0.9,-89.6,27.55,74,20,8.23,EC,1702234596
202,undurkhaan,47.3194,110.6556,-20.45,91,100,0.49,MN,1702234596
203,chui,-33.6971,-53.4616,21.26,69,36,4.44,UY,1702234597
204,kruisfontein,-34.0033,24.7314,17.16,88,10,2.59,ZA,1702234597
205,taoudenni,22.6783,-3.9836,20.9,18,100,7.25,ML,1702234598
206,atafu village,-8.5421,-172.5159,29.51,73,100,5.35,TK,1702234598
207,boke,10.9409,-14.2967,27.91,32,100,1.52,GN,1702234598
208,nikolayevsk-on-amure,53.1406,140.73,-20.44,80,100,4.7,RU,1702234599
209,fortaleza,-3.7227,-38.5247,31.71,66,20,6.69,BR,1702234599
210,la'ie,21.6477,-157.9253,26.98,79,23,1.34,US,1702234380
211,necochea,-38.5473,-58.7368,23.8,43,0,5.63,AR,1702234398
212,seward,40.907,-97.0989,7.22,54,100,2.68,US,1702234600
213,pumiao,22.75,108.4833,20.22,94,12,2.6,CN,1702234601
214,san mariano,7.5,126.0,21.14,91,78,1.32,PH,1702234602
215,sisimiut,66.9395,-53.6735,-4.01,95,100,4.94,GL,1702234458
216,shatrovo,56.5167,64.6333,-30.76,96,7,3.28,RU,1702234602
217,sarnia,42.9787,-82.4041,5.96,70,100,5.14,CA,1702234412
218,kerikeri,-35.2268,173.9474,17.17,90,100,1.97,NZ,1702234603
219,hailar,49.2,119.7,-36.58,100,94,2.32,CN,1702234604
220,nyurba,63.2842,118.3319,-28.7,98,100,2.62,RU,1702234604
221,urengoy,65.9667,78.3667,-36.71,99,87,2.78,RU,1702234604
222,dubbo,-32.25,148.6167,21.07,83,17,3.6,AU,1702234605
223,zhangatas,43.5667,69.75,-6.73,78,100,2.52,KZ,1702234605
224,mossel bay,-34.1831,22.146,16.96,76,7,6.01,ZA,1702234605
225,geraldton,-28.7667,114.6,19.23,19,0,4.63,AU,1702234606
226,corumba,-19.0092,-57.6533,23.95,88,75,11.83,BR,1702234606
227,cole harbour,44.6724,-63.4751,7.62,90,95,1.34,CA,1702234388
228,charlottetown,46.2352,-63.1267,4.55,81,100,6.71,CA,1702234136
229,coquimbo,-29.9533,-71.3436,18.85,72,75,5.66,CL,1702234589
230,newman,37.3138,-121.0208,12.94,39,100,0.89,US,1702234607
231,nemuro,43.3236,145.575,-1.12,53,26,6.07,JP,1702234608
232,kyshtym,55.714,60.5528,-22.68,98,100,2.72,RU,1702234608
233,castro,-24.7911,-50.0119,17.46,98,100,0.57,BR,1702234331
234,hino,35.6731,139.4003,13.95,72,20,0.0,JP,1702234609
235,port moresby,-9.4431,147.1797,23.91,87,100,1.62,PG,1702234610
236,longboat key,27.4125,-82.659,27.94,71,0,8.75,US,1702234610
237,leava,-14.3,-178.1667,27.85,75,66,7.9,WF,1702234610
238,birjand,32.8663,59.2211,4.26,33,0,3.09,IR,1702234611
239,qamdo,31.1667,97.2333,-8.8,61,7,2.4,CN,1702234611
240,lata,40.1629,-8.3327,16.15,94,28,1.73,PT,1702234611
241,wang nam yen,13.5033,102.1812,23.82,86,83,1.32,TH,1702234612
242,remire-montjoly,4.9167,-52.2667,31.02,62,40,4.63,GF,1702234612
243,menongue,-14.6585,17.691,19.99,83,100,3.9,AO,1702234613
244,port elizabeth,-33.918,25.5701,18.39,84,0,1.54,ZA,1702234329
245,el matama,16.7095,33.3565,27.8,18,4,3.62,SD,1702234613
246,weno,7.4515,151.8468,27.97,78,100,3.6,FM,1702234497
247,lebu,-37.6167,-73.65,15.67,70,100,9.49,CL,1702234455
248,mount gambier,-37.8333,140.7667,14.52,87,100,6.75,AU,1702234396
249,kralendijk,12.15,-68.2667,25.99,94,75,9.26,BQ,1702234615
250,kirensk,57.7853,108.1119,-33.35,99,98,1.34,RU,1702234468
251,lluta,-16.0147,-72.0142,17.65,30,95,4.46,PE,1702234615
252,taos,36.4072,-105.5731,5.86,40,0,1.54,US,1702234616
253,hithadhoo,-0.6,73.0833,27.86,73,100,0.98,MV,1702234447
254,sao jose da coroa grande,-8.8978,-35.1478,27.91,61,62,3.63,BR,1702234616
255,hamilton,39.1834,-84.5333,3.97,76,100,5.81,US,1702234617
256,saint-paul,-21.0096,55.2707,27.06,97,100,0.45,RE,1702234327
257,annaba,36.9,7.7667,13.98,88,20,1.54,DZ,1702234617
258,new norfolk,-42.7826,147.0587,11.07,82,91,1.43,AU,1702234372
259,east london,-33.0153,27.9116,17.52,94,75,3.09,ZA,1702234618
260,xining,36.6167,101.7667,-1.54,52,100,0.94,CN,1702234457
261,nova sintra,14.8667,-24.7167,23.15,74,100,4.07,CV,1702234349
262,lerwick,60.1545,-1.1494,7.0,74,100,10.59,GB,1702234365
263,bayanhongor,46.7167,100.1167,-20.95,92,44,1.71,MN,1702234619
264,pitimbu,-7.4706,-34.8086,30.33,59,12,3.78,BR,1702234448
265,muli,2.9167,73.5667,28.22,76,100,2.88,MV,1702234620
266,panzos,15.4,-89.6667,28.29,77,39,1.84,GT,1702234620
267,calama,-22.4667,-68.9333,26.27,8,0,11.83,CL,1702234447
268,meadow lake,34.8014,-106.5436,7.44,29,34,2.18,US,1702234621
269,ribadeo,43.5325,-7.0991,17.0,75,100,5.61,ES,1702234622
270,hastings,50.8552,0.5729,11.55,83,0,12.78,GB,1702234555
271,nadym,65.5333,72.5167,-35.02,99,19,3.6,RU,1702234622
272,port lincoln,-34.7333,135.8667,15.84,96,100,8.85,AU,1702234459
273,sitka,57.0531,-135.33,1.94,87,40,2.57,US,1702234369
274,moussoro,13.6408,16.4901,23.59,20,1,3.78,TD,1702234396
275,kalininsk,51.5,44.4758,-9.4,80,100,6.06,RU,1702234624
276,mitsamiouli,-11.3847,43.2844,27.73,81,100,4.69,KM,1702234624
277,san julian,21.0167,-102.1667,20.14,40,43,6.0,MX,1702234498
278,kenai,60.5544,-151.2583,-5.48,84,100,7.2,US,1702234625
279,afaahiti,-17.75,-149.2833,27.93,83,83,10.85,PF,1702234625
280,tralee,52.2704,-9.7026,10.09,86,47,9.83,IE,1702234386
281,ixtlahuacan del rio,20.8667,-103.25,23.54,33,85,2.26,MX,1702234626
282,santo antonio,-6.3106,-35.4789,29.99,44,50,6.92,BR,1702234626
283,ponta delgada,37.7333,-25.6667,18.44,88,75,5.14,PT,1702234627
284,buka,40.8108,69.1986,2.64,62,100,1.7,UZ,1702234627
285,sao miguel do araguaia,-13.275,-50.1628,39.33,23,72,0.92,BR,1702234627
286,georgetown,5.4112,100.3354,26.96,95,20,1.03,MY,1702234628
287,ridgecrest,35.6225,-117.6709,12.03,22,0,0.45,US,1702234495
288,guanica,17.9716,-66.908,29.5,48,18,7.74,PR,1702234629
289,urangan,-25.3,152.9,23.98,69,5,8.61,AU,1702234629
290,thunder bay,48.4001,-89.3168,-3.01,59,75,6.69,CA,1702234501
291,presidente olegario,-18.4178,-46.4181,25.77,60,80,2.29,BR,1702234338
292,talara,-4.5772,-81.2719,29.42,58,0,6.69,PE,1702234505
293,st. paul,44.9444,-93.0933,-3.38,83,100,2.06,US,1702234570
294,chateaurenard,43.8817,4.8549,10.35,86,0,1.03,FR,1702234631
295,arkhangel'sk,64.5401,40.5433,-15.94,77,0,6.0,RU,1702234632
296,klyuchi,52.2667,79.1667,-20.91,85,22,2.25,RU,1702234501
297,san pedro pochutla,15.7333,-96.4667,31.93,48,23,3.39,MX,1702234632
298,tomatlan,19.9333,-105.25,34.38,28,34,1.71,MX,1702234633
299,houlton,46.1262,-67.8403,6.23,90,100,3.09,US,1702234633
300,mogadishu,2.0371,45.3438,27.47,80,9,7.53,SO,1702234461
301,kaiyuan,23.6977,103.3037,13.34,87,0,1.53,CN,1702234634
302,plouzane,48.3833,-4.6167,12.18,97,75,7.2,FR,1702234634
303,pierre,44.3683,-100.351,-0.08,82,75,2.57,US,1702234593
304,al hasakah,36.5024,40.7477,13.46,77,5,2.22,SY,1702234635
305,kalengwa,-13.4659,25.0027,22.42,67,100,0.97,ZM,1702234635
306,syktyvkar,61.6764,50.8099,-20.15,84,100,3.0,RU,1702234636
307,ribeira brava,32.65,-17.0667,22.23,90,39,1.74,PT,1702234636
308,puerto aysen,-45.4,-72.7,12.49,99,100,2.39,CL,1702234379
309,muisne,0.6,-80.0333,26.64,82,67,4.95,EC,1702234637
310,filadelfia,39.9523,-75.1638,16.42,96,100,2.57,US,1702234366
311,broome,42.2506,-75.833,11.92,95,100,5.66,US,1702234638
312,kavieng,-2.5744,150.7967,27.88,76,100,5.81,PG,1702234490
313,yanam,16.7333,82.2167,23.33,77,94,1.34,IN,1702234417
314,dhidhdhoo,6.8833,73.1,28.51,78,85,5.45,MV,1702234639
315,erdenet,49.0333,104.0833,-25.37,99,100,0.36,MN,1702234640
316,ancud,-41.8697,-73.8203,15.17,74,100,4.81,CL,1702234444
317,saint-philippe,-21.3585,55.7679,26.77,86,100,5.99,RE,1702234640
318,freetown,8.484,-13.2299,28.84,70,40,2.57,SL,1702234641
319,polyarnyy,69.1989,33.4478,-10.75,85,100,8.77,RU,1702234641
320,tieli,46.95,128.05,-30.01,99,7,1.69,CN,1702234642
321,tazacorte,28.629,-17.9293,23.42,52,20,2.68,ES,1702234642
322,hammerfest,70.6634,23.6821,-4.75,68,0,5.66,NO,1702234642
323,luanco,43.6152,-5.7934,17.71,87,100,4.22,ES,1702234643
324,amuntai,-2.4177,115.2494,23.23,98,100,0.38,ID,1702234643
325,merced,37.1666,-120.7516,12.94,70,100,1.75,US,1702234643
326,al jawf,29.5,38.75,19.77,43,100,7.03,SA,1702234644
327,yeppoon,-23.1333,150.7333,23.88,78,100,10.26,AU,1702234644
328,hengchun,22.0042,120.7439,24.95,88,26,4.51,TW,1702234644
329,walvis bay,-22.9575,14.5053,17.53,77,16,2.57,NA,1702234645
330,alexandria,31.2156,29.9553,17.3,58,100,4.12,EG,1702234605
331,al bardiyah,31.7561,25.0865,16.56,56,100,2.16,LY,1702234646
332,tsuruoka,38.7217,139.8217,6.36,65,100,3.66,JP,1702234600
333,mount pearl,47.5166,-52.7813,1.75,82,100,2.06,CA,1702234647
334,vernon,50.2581,-119.2691,3.5,88,100,4.12,CA,1702234647
335,sinop,41.7711,34.8709,5.65,86,95,2.69,TR,1702234647
336,shahrud,36.4182,54.9763,6.99,49,5,0.37,IR,1702234648
337,moose jaw,50.4001,-105.5344,2.14,51,33,4.12,CA,1702234648
338,murun-kuren,49.6342,100.1625,-21.55,94,82,0.49,MN,1702234648
339,igrim,63.1906,64.4162,-35.76,100,11,1.15,RU,1702234649
340,betioky,-23.7167,44.3833,25.89,61,30,1.52,MG,1702234649
341,tekkali,18.6167,84.2333,20.94,76,1,1.66,IN,1702234650
342,ihosy,-22.4,46.1167,23.67,77,96,2.17,MG,1702234650
343,wanning,18.8003,110.3967,22.53,91,33,1.26,CN,1702234650
344,great falls,47.5002,-111.3008,8.01,50,75,11.32,US,1702234620
345,bitkine,11.9801,18.2138,24.44,13,0,3.47,TD,1702234651
346,moyale,3.5167,39.0584,22.88,50,6,6.11,KE,1702234652
347,tossa de mar,41.7325,2.9338,14.12,66,100,1.91,ES,1702234652
348,udachny,66.4167,112.4,-29.2,82,100,5.18,RU,1702234444
349,black point,-34.6187,137.8972,17.49,86,94,10.45,AU,1702234653
350,crane,31.3974,-102.3501,9.32,28,5,4.46,US,1702234485
351,villa regina,-39.1,-67.0667,34.99,15,97,2.24,AR,1702234370
352,mesquite,32.7668,-96.5992,11.96,30,0,2.06,US,1702234366
353,salinas,36.6777,-121.6555,18.31,38,0,6.17,US,1702234511
354,birnin kebbi,12.4539,4.1975,25.67,12,2,3.91,NG,1702234655
355,kadnikov,59.5022,40.338,-16.77,94,100,5.0,RU,1702234655
356,ketchikan,55.3422,-131.6461,3.52,87,20,0.0,US,1702234440
357,tidjikja,18.5564,-11.4271,24.08,16,9,5.63,MR,1702234656
358,port isabel,26.0734,-97.2086,17.25,29,0,10.29,US,1702234656
359,waat,51.1454,6.4958,10.15,90,100,5.66,DE,1702234366
360,dar chioukh,34.8964,3.4854,10.83,64,26,2.59,DZ,1702234657
361,susuman,62.7833,148.1667,-13.34,93,100,0.45,RU,1702234475
362,port augusta,-32.5,137.7667,17.77,85,97,3.32,AU,1702234658
363,labrador city,52.9463,-66.9114,-1.05,86,100,5.66,CA,1702234658
364,margate,51.3813,1.3862,10.62,80,0,4.47,GB,1702234361
365,plast,54.3691,60.8136,-24.1,98,100,3.97,RU,1702234659
366,haiku-pauwela,20.9219,-156.3051,25.58,76,20,6.26,US,1702234659
367,that phanom,16.9364,104.7104,23.43,66,5,1.04,TH,1702234660
368,igarka,67.4667,86.5833,-32.81,98,100,2.3,RU,1702234660
369,pacasmayo,-7.4006,-79.5714,23.22,71,9,6.58,PE,1702234660
370,hilo,19.7297,-155.09,24.58,99,100,3.09,US,1702234391
371,nieuw amsterdam,5.8833,-55.0833,32.09,68,75,2.57,SR,1702234661
372,suamico,44.6319,-88.0393,-0.57,76,100,5.14,US,1702234662
373,praia da vitoria,38.7333,-27.0667,18.2,82,20,5.33,PT,1702234379
374,vila franca do campo,37.7167,-25.4333,18.27,99,100,4.86,PT,1702234487
375,codrington,-38.2667,141.9667,14.92,86,100,8.08,AU,1702234663
376,maracaibo,10.6317,-71.6406,30.53,63,41,3.04,VE,1702234493
377,uddevalla,58.3478,11.9424,1.66,93,100,0.45,SE,1702234663
378,key largo,25.0865,-80.4473,28.0,82,100,5.35,US,1702234536
379,rio gallegos,-51.6226,-69.2181,14.03,38,20,4.12,AR,1702234664
380,howrah,22.5892,88.3103,19.0,77,0,1.54,IN,1702234665
381,dalandzadgad,43.5708,104.425,-7.96,64,97,1.04,MN,1702234389
382,dakhla,23.6848,-15.958,22.01,68,44,3.09,EH,1702234491
383,port saint john's,-31.6229,29.5448,18.03,85,100,1.39,ZA,1702234666
384,sao gabriel da cachoeira,-0.1303,-67.0892,31.89,66,40,3.09,BR,1702234666
385,akoupe,6.39,-3.9003,26.62,65,75,1.54,CI,1702234666
386,ruislip,51.5734,-0.4234,11.03,87,20,8.23,GB,1702234667
387,usogorsk,63.4106,48.6872,-24.07,99,100,3.26,RU,1702234667
388,al bawiti,28.3492,28.8659,15.5,41,32,1.87,EG,1702234667
389,magistral'nyy,56.1725,107.4458,-34.24,99,39,0.37,RU,1702234668
390,gillette,44.2911,-105.5022,6.17,38,100,4.47,US,1702234493
391,la ronge,55.1001,-105.2842,-11.86,79,40,3.09,CA,1702234669
392,mariental,-24.6333,17.9667,25.9,7,0,5.88,NA,1702234439
393,gaiman,-43.2897,-65.4929,29.92,19,12,3.28,AR,1702234669
394,hotan,37.0997,79.9269,5.19,22,3,0.92,CN,1702234670
395,antalaha,-14.9003,50.2788,24.61,91,99,2.18,MG,1702234670
396,novokruchininskiy,51.7833,113.7667,-35.15,98,11,1.0,RU,1702234670
397,iskateley,67.6803,53.1512,-22.77,91,96,4.92,RU,1702234452
398,lijiang,26.8688,100.2207,2.78,85,0,2.29,CN,1702234671
399,kendari,-3.945,122.4989,23.94,94,99,1.55,ID,1702234672
400,lemvig,56.5486,8.3102,3.44,97,100,8.05,DK,1702234646
401,monte carmelo,-18.7247,-47.4986,31.63,39,11,4.37,BR,1702234538
402,arinos,-15.9169,-46.1056,34.83,29,100,2.23,BR,1702234673
403,norderney,53.7,7.15,7.77,97,100,4.33,DE,1702234673
404,harstad,68.799,16.5293,-0.47,76,83,9.39,NO,1702234674
405,kishangarh,26.5667,74.8667,15.2,30,7,1.28,IN,1702234674
406,makarov,48.6333,142.8,-13.14,81,47,6.68,RU,1702234674
407,baganga,7.5739,126.56,24.99,88,36,2.81,PH,1702234675
408,kayangel,8.0823,134.7173,28.32,79,84,7.22,PW,1702234455
409,castillos,-34.1667,-53.8333,21.49,64,23,4.31,UY,1702234392
410,progreso,21.2833,-89.6667,30.06,73,100,4.26,MX,1702234676
411,happy valley-goose bay,53.3168,-60.3315,-0.83,64,100,6.17,CA,1702234676
412,paita,-5.0892,-81.1144,24.84,69,1,6.88,PE,1702234676
413,huarmey,-10.0681,-78.1522,23.6,71,20,5.1,PE,1702234677
414,abepura,-2.6333,140.5833,24.45,88,40,2.06,ID,1702234677
415,grand falls-windsor,48.9332,-55.6649,2.5,72,100,1.75,CA,1702234677
416,carutapera,-1.195,-46.02,29.52,65,75,4.59,BR,1702234678
417,greenville,35.6127,-77.3663,20.08,96,100,6.17,US,1702234678
418,yemanzhelinsk,54.7547,61.3208,-26.05,97,97,4.09,RU,1702234679
419,floro,61.5996,5.0328,5.54,70,40,4.12,NO,1702234679
420,kununurra,-15.7667,128.7333,23.99,88,75,4.12,AU,1702234679
421,rio grande,-32.035,-52.0986,26.06,82,73,8.68,BR,1702234680
422,aras-asan,8.8908,126.3033,25.11,86,63,1.81,PH,1702234680
423,yur'yev-pol'skiy,56.5,39.6833,-10.75,94,100,6.16,RU,1702234680
424,mont-dore,-22.2833,166.5833,18.99,74,94,2.92,NC,1702234681
425,pisco,-13.7,-76.2167,22.23,73,0,4.63,PE,1702234681
426,stephenville,32.2207,-98.2023,10.69,21,0,4.12,US,1702234681
427,sidareja,-7.4846,108.7923,25.14,88,100,0.72,ID,1702234682
428,cabedelo,-6.9811,-34.8339,30.37,61,100,4.27,BR,1702234682
429,salamanca,40.8333,-6.0,10.88,94,61,3.13,ES,1702234577
430,kapoeta,4.7717,33.5903,29.96,33,15,2.58,SS,1702234683
431,tezu,27.9167,96.1667,16.46,63,43,1.42,IN,1702234683
432,bangassou,4.7413,22.8184,23.03,68,64,1.15,CF,1702234684
433,usakos,-22.0,15.6,22.01,35,0,4.95,NA,1702234684
434,korla,41.7597,86.1469,-2.82,58,17,1.64,CN,1702234684
435,la rinconada,37.4873,-5.9826,17.81,85,0,1.03,ES,1702234685
436,kalmunai,7.4167,81.8167,25.69,86,65,0.79,LK,1702234685
437,kachug,53.9606,105.8817,-33.86,100,25,0.45,RU,1702234686
438,zeya,53.75,127.2667,-25.84,76,5,2.4,RU,1702234686
439,turtas,58.9417,69.1325,-29.6,94,16,2.83,RU,1702234686
440,sur,22.5667,59.5289,23.09,53,4,1.33,OM,1702234687
441,dickinson,29.4608,-95.0513,15.65,32,0,8.75,US,1702234687
442,lhasa,29.65,91.1,-1.72,48,10,1.31,CN,1702234688
443,steamboat springs,40.485,-106.8317,-2.03,86,100,0.0,US,1702234688
444,yunyang,33.4474,112.7142,0.11,97,100,6.68,CN,1702234688
445,dunedin,-45.8742,170.5036,8.78,72,9,1.32,NZ,1702234338
446,yarmouth,41.7057,-70.2286,16.26,93,100,4.12,US,1702234689
447,mathba,22.2855,89.9629,16.37,56,0,2.66,BD,1702234689
448,richards bay,-28.783,32.0377,20.6,95,100,3.83,ZA,1702234690
449,sakaraha,-22.9,44.5333,26.29,60,85,3.03,MG,1702234690
450,twon-brass,4.3151,6.2418,27.8,80,51,5.3,NG,1702234691
451,villa gesell,-37.2639,-56.973,21.24,71,11,7.13,AR,1702234691
452,tubarjal,30.4999,38.216,18.66,49,100,5.43,SA,1702234691
453,mikumi,-7.4041,36.9831,21.83,96,100,1.24,TZ,1702234692
454,salavan,15.7167,106.4167,21.74,83,79,1.12,LA,1702234692
455,starkville,33.4504,-88.8184,10.81,53,0,4.63,US,1702234513
456,ilave,-16.0833,-69.6667,17.0,39,45,5.13,PE,1702234693
457,grand gaube,-20.0064,57.6608,26.32,80,81,3.58,MU,1702234693
458,sao vicente,-23.9631,-46.3919,26.1,63,100,3.6,BR,1702234693
459,vorkuta,67.5,64.0,-25.69,100,100,2.21,RU,1702234694
460,krapivinskiy,54.9992,86.8133,-29.9,100,70,0.66,RU,1702234694
461,nagqu,31.5,92.0,-10.86,42,100,0.57,CN,1702234695
462,santa ana,33.7456,-117.8678,24.39,20,40,2.06,US,1702234695
463,novo aripuana,-5.1206,-60.3797,34.32,44,99,1.2,BR,1702234695
464,sambava,-14.2667,50.1667,25.41,88,57,2.43,MG,1702234696
465,zhengjiatun,43.5064,123.5064,-14.2,61,100,3.47,CN,1702234696
466,vrangel',42.7297,133.0839,-10.95,51,5,5.43,RU,1702234696
467,castlegar,49.2998,-117.6689,4.05,92,100,0.6,CA,1702234697
468,kaimganj,27.5667,79.35,14.94,30,0,2.4,IN,1702234697
469,balabac,7.9868,117.0645,27.11,79,28,3.16,PH,1702234698
470,dryden,49.7833,-92.7503,-6.84,93,100,3.09,CA,1702234698
471,kolonia,50.9333,6.95,10.03,84,75,4.63,DE,1702234562
472,bedi,22.5,70.05,22.44,44,1,2.33,IN,1702234699
473,sinabang,2.4803,96.3801,25.91,86,99,1.35,ID,1702234699
474,morag,53.9171,19.926,-0.95,94,100,5.33,PL,1702234699
475,porto velho,-8.7619,-63.9039,32.03,62,40,1.54,BR,1702234577
476,taksimo,56.3444,114.8794,-32.57,90,49,0.79,RU,1702234403
477,la gi,10.6667,107.7833,23.54,88,100,4.36,VN,1702234700
478,yerofey pavlovich,53.9667,121.9667,-31.27,93,11,1.58,RU,1702234701
479,rumphi,-11.0186,33.8575,21.58,79,67,2.16,MW,1702234701
480,berbera,10.4396,45.0143,25.76,66,0,2.76,SO,1702234702
481,charleville-mezieres,49.7667,4.7167,9.65,96,100,8.57,FR,1702234702
482,chimoio,-19.1164,33.4833,27.92,83,40,2.96,MZ,1702234702
483,aleksandrovsk-sakhalinskiy,50.8975,142.1561,-14.68,88,100,4.18,RU,1702234703
484,omdurman,15.6445,32.4777,27.53,17,0,4.14,SD,1702234703
485,alto araguaia,-17.3147,-53.2153,32.54,41,100,3.16,BR,1702234703
486,mutuali,-14.8706,37.0044,26.04,61,32,1.87,MZ,1702234704
487,toprakkale,37.0686,36.1466,13.74,78,100,2.22,TR,1702234704
488,palapag,12.5458,125.1147,25.75,88,100,2.98,PH,1702234705
489,itoman,26.1247,127.6694,23.43,86,20,3.09,JP,1702234705
490,ndele,8.4109,20.6473,27.52,22,100,0.92,CF,1702234705
491,palmer,42.1584,-72.3287,14.36,84,100,1.79,US,1702234706
492,choibalsan,48.0667,114.5,-28.69,91,100,1.23,MN,1702234706
493,quellon,-43.1167,-73.6167,14.94,77,99,3.16,CL,1702234706
494,lyantor,61.6195,72.1555,-34.5,97,7,3.33,RU,1702234707
495,comandante fontana,-25.3345,-59.6821,29.18,46,71,3.94,AR,1702234707
496,basco,20.4487,121.9702,26.76,81,40,8.57,PH,1702234708
497,oranjemund,-28.55,16.4333,17.01,85,1,5.75,NA,1702234501
498,alice springs,-23.7,133.8833,9.75,93,0,3.09,AU,1702234708
499,vadso,70.0744,29.7487,-10.91,79,20,10.29,NO,1702234482
500,eldivan,40.5298,33.499,4.83,84,100,1.3,TR,1702234709
501,wynyard,-41.0,145.7167,12.35,63,100,2.15,AU,1702234709
502,kill devil hills,36.0307,-75.676,20.01,83,100,10.07,US,1702234710
503,tobelo,1.7284,128.0095,26.28,81,100,1.82,ID,1702234710
504,la mojonera,37.2923,-2.4373,12.32,40,66,2.79,ES,1702234711
505,copala,16.65,-98.9833,30.36,55,100,2.33,MX,1702234711
506,al ghayzah,16.2079,52.176,24.36,61,28,1.63,YE,1702234711
507,kaa-khem,51.6833,94.7333,-34.22,97,95,1.12,RU,1702234712
508,palikir - national government center,6.9248,158.1611,27.41,78,100,2.57,FM,1702234452
509,altai,46.3722,96.2583,-15.23,55,54,3.39,MN,1702234713
510,los angeles,34.0522,-118.2437,23.56,18,0,4.12,US,1702234617
511,kingscliff,-28.2667,153.5667,21.64,88,100,2.57,AU,1702234714
512,martapura,-3.4167,114.85,26.05,94,40,2.06,ID,1702234714
513,taitung city,22.7583,121.1444,24.4,89,77,0.98,TW,1702234715
514,rawson,-43.3002,-65.1023,27.53,26,3,3.31,AR,1702234716
515,sechura,-5.5569,-80.8222,27.94,56,13,5.88,PE,1702234716
516,bardai,11.65,7.2333,21.4,17,53,4.1,NG,1702234716
517,oxford,51.7522,-1.256,10.99,85,20,6.17,GB,1702234610
518,zouerate,22.7187,-12.4521,23.34,22,86,5.04,MR,1702234717
519,kindu,-2.95,25.95,21.54,99,100,1.16,CD,1702234717
520,dompierre-sur-mer,46.1882,-1.0635,14.95,94,100,6.69,FR,1702234718
521,tailai,46.3833,123.4,-19.32,80,1,1.58,CN,1702234719
522,guerrero negro,27.9769,-114.0611,21.65,23,0,1.89,MX,1702234719
523,naracoorte,-36.9579,140.7383,16.23,86,100,7.88,AU,1702234720
524,carira,-10.3608,-37.7011,32.12,33,23,7.59,BR,1702234720
525,kainantu,-6.2887,145.8655,15.84,97,100,1.64,PG,1702234720
526,hangha,7.9411,-11.14,24.94,45,93,0.8,SL,1702234721
527,vanimo,-2.6741,141.3028,25.5,90,84,3.02,PG,1702234721
528,rio preto da eva,-2.6994,-59.6997,30.54,65,100,1.27,BR,1702234721
529,flying fish cove,-10.4217,105.6791,23.82,88,100,3.09,CX,1702234722
530,morondava,-20.2833,44.2833,27.99,79,18,5.21,MG,1702234722
531,rongelap,11.1635,166.8941,26.96,80,100,8.1,MH,1702234493
532,edd,13.9297,41.6925,28.22,51,0,7.94,ER,1702234723
533,zykovo,55.9519,93.1461,-34.66,100,33,1.25,RU,1702234723
534,afif,23.9065,42.9172,17.8,24,98,3.71,SA,1702234723
535,coyhaique,-45.5752,-72.0662,17.34,55,75,2.06,CL,1702234631
536,illapel,-31.6308,-71.1653,27.57,39,6,4.51,CL,1702234572
537,kone,-21.0595,164.8658,22.38,77,100,2.21,NC,1702234381
538,tucuma,-0.1833,-50.05,29.68,67,49,3.67,BR,1702234725
539,ubari,26.5921,12.7805,14.55,58,36,3.16,LY,1702234725
540,selkirk,50.1436,-96.8845,-5.92,91,20,1.79,CA,1702234726
541,the dalles,45.5946,-121.1787,12.35,95,100,2.06,US,1702234450
542,george town,5.4112,100.3354,26.96,95,20,1.03,MY,1702234679
543,funafuti,-8.5243,179.1942,30.0,79,75,7.72,TV,1702234726
544,kourou,5.1552,-52.6478,31.03,70,34,3.52,GF,1702234727
545,cockburn town,21.4612,-71.1419,27.98,61,40,7.72,TC,1702234727
546,puerto madero,14.7208,-92.4215,29.05,69,72,3.16,MX,1702234727
547,rajgarh,28.6333,75.3833,16.21,29,0,1.75,IN,1702234728
548,lahoysk,54.2016,27.8503,-5.0,95,100,5.23,BY,1702234728
549,ankazoabo,-22.2833,44.5167,27.07,57,69,3.85,MG,1702234728
550,mitu,1.1983,-70.1733,29.47,72,48,1.4,CO,1702234729
551,ca mau,9.1769,105.15,24.13,92,72,2.53,VN,1702234729
552,magadan,59.5667,150.8,-2.48,80,61,11.26,RU,1702234730
553,namtsy,62.7161,129.6658,-31.15,90,100,4.9,RU,1702234478
554,boquete,8.7833,-82.4333,23.78,62,29,1.99,PA,1702234730
555,velikiy ustyug,60.7644,46.3106,-18.3,87,100,3.93,RU,1702234731
556,hasaki,35.7333,140.8333,11.27,71,100,2.25,JP,1702234731
557,leczyca,52.0596,19.1997,2.86,99,100,5.15,PL,1702234731
558,anaconda,46.1285,-112.9423,1.69,75,95,2.63,US,1702234732
559,coelho neto,-4.2567,-43.0128,30.5,58,93,0.98,BR,1702234732
560,la sarre,48.8002,-79.1996,-2.59,91,100,4.18,CA,1702234668
561,malango,-2.9627,119.9001,20.39,96,100,1.06,ID,1702234733
562,chernihiv,51.0,32.0,-0.35,97,100,3.49,UA,1702234733
563,amahai,-3.3333,128.9167,26.24,83,96,2.42,ID,1702234733
564,salekhard,66.53,66.6019,-29.29,100,99,2.99,RU,1702234734
565,constitucion,-35.3333,-72.4167,20.65,57,24,6.3,CL,1702234734
566,atar,20.5169,-13.0499,30.03,14,4,6.17,MR,1702234734
