City_ID,City,Lat,Lng,Max Temp,Humidity,Cloudiness,Wind Speed,Country,Date
0,bilibino,68.0546,166.4372,-26.17,98,45,1.96,RU,1702246603
1,atafu village,-8.5421,-172.5159,28.53,79,96,6.98,TK,1702246605
2,port mathurin,-19.6833,63.4167,26.07,78,52,3.75,MU,1702246714
3,port-aux-francais,-49.35,70.2167,3.56,78,56,9.91,TF,1702246575
4,avarua,-21.2078,-159.775,27.03,78,75,11.83,CK,1702246526
5,alice springs,-23.7,133.8833,13.75,67,75,7.2,AU,1702246629
6,port elizabeth,-33.918,25.5701,15.73,90,5,1.01,ZA,1702246636
7,ahmadnagar,19.0833,74.7333,19.22,67,54,1.63,IN,1702247012
8,chimoio,-19.1164,33.4833,21.27,99,56,1.85,MZ,1702247012
9,ust-nera,64.5667,143.2,-19.31,98,100,3.54,RU,1702246617
10,bethel,41.3712,-73.414,14.39,89,100,2.57,US,1702246378
11,talnakh,69.4865,88.3972,-27.11,99,100,4.11,RU,1702246666
12,north bend,43.4065,-124.2243,13.81,100,100,3.6,US,1702247013
13,gadzhiyevo,69.2551,33.3362,-12.33,86,96,8.06,RU,1702246618
14,albany,42.6001,-73.9662,12.32,90,100,1.34,US,1702246538
15,sortavala,61.7053,30.6918,-7.77,94,100,5.81,RU,1702247015
16,ushuaia,-54.8,-68.3,8.81,49,0,9.77,AR,1702246576
17,bondo,3.8146,23.6866,21.5,88,36,1.11,CD,1702247015
18,kruisfontein,-34.0033,24.7314,13.82,91,4,1.83,ZA,1702246784
19,iqaluit,63.7506,-68.5145,-5.15,79,100,5.66,CA,1702246578
20,cartagena,10.3997,-75.5144,30.79,66,20,3.6,CO,1702246735
21,college,64.8569,-147.8028,-25.31,74,40,2.06,US,1702246672
22,tiksi,71.6872,128.8694,-25.02,100,100,1.83,RU,1702246613
23,waitangi,-43.9535,-176.5597,14.34,55,3,2.34,NZ,1702246486
24,jinghong,21.991,100.7341,16.12,94,0,1.11,CN,1702247018
25,grytviken,-54.2811,-36.5092,5.62,90,100,6.68,GS,1702246599
26,minas de marcona,-15.2119,-75.1103,18.46,65,81,6.13,PE,1702246677
27,bredasdorp,-34.5322,20.0403,16.23,78,0,2.57,ZA,1702246600
28,edinburgh of the seven seas,-37.0676,-12.3116,13.65,69,97,6.48,SH,1702246586
29,padang,-0.9492,100.3543,26.03,92,97,1.14,ID,1702247019
30,uturoa,-16.7333,-151.4333,26.91,80,43,10.14,PF,1702246574
31,kuta,-8.7233,115.1723,26.97,83,20,1.54,ID,1702247020
32,kodiak,57.79,-152.4072,3.73,93,100,4.12,US,1702246572
33,al kharijah,25.4514,30.5464,17.74,28,98,2.5,EG,1702246597
34,puerto natales,-51.7236,-72.4875,12.25,54,40,6.69,CL,1702246596
35,kodinsk,58.6881,99.1844,-33.09,100,30,0.18,RU,1702247022
36,margaret river,-33.95,115.0667,13.21,59,0,5.29,AU,1702246334
37,frederico westphalen,-27.3592,-53.3944,19.93,96,85,0.93,BR,1702246770
38,nova vicosa,-17.8919,-39.3719,25.33,81,22,4.1,BR,1702247023
39,tazovsky,67.4667,78.7,-26.73,97,100,4.99,RU,1702246325
40,geraldton,-28.7667,114.6,22.23,20,0,7.2,AU,1702247024
41,adamstown,-25.066,-130.1015,21.07,58,0,4.13,PN,1702246485
42,kuantan,3.8077,103.326,25.06,88,20,0.0,MY,1702247024
43,kourou,5.1552,-52.6478,28.03,86,24,2.47,GF,1702246762
44,papatowai,-46.5619,169.4708,14.66,44,21,3.33,NZ,1702246587
45,badger,64.8,-147.5333,-25.36,74,0,2.06,US,1702246673
46,udachny,66.4167,112.4,-28.64,82,100,5.47,RU,1702246613
47,jamestown,42.097,-79.2353,4.77,79,100,3.09,US,1702246606
48,saipan,15.1355,145.701,28.39,78,20,5.66,MP,1702246502
49,ruza,55.699,36.1952,-8.33,95,100,3.53,RU,1702247027
50,invercargill,-46.4,168.35,14.77,49,44,5.13,NZ,1702246570
51,arauco,-37.2463,-73.3175,19.0,53,100,6.83,CL,1702246647
52,vila velha,-20.3297,-40.2925,24.41,80,75,2.68,BR,1702246620
53,isafjordur,66.0755,-23.124,-2.61,85,100,3.22,IS,1702246596
54,swift current,50.2834,-107.8014,2.45,51,0,4.63,CA,1702247028
55,thompson,55.7435,-97.8558,-15.91,92,100,1.03,CA,1702246595
56,san antonio de pale,-1.4014,5.6325,27.5,79,99,5.32,GQ,1702246580
57,chonchi,-42.6128,-73.8092,18.56,65,99,1.51,CL,1702246641
58,west island,-12.1568,96.8225,25.99,78,75,4.12,CC,1702246654
59,seven pagodas,12.6264,80.1722,25.03,84,70,5.03,IN,1702247030
60,mejit,10.2753,170.8646,27.61,74,100,8.9,MH,1702246679
61,tamanrasset,22.785,5.5228,13.95,24,0,5.14,DZ,1702247031
62,yen vinh,18.6667,105.6667,21.85,95,15,0.88,VN,1702247031
63,arteche,12.2645,125.4048,25.73,88,100,3.96,PH,1702247032
64,bol'sherech'ye,56.0925,74.6272,-29.07,98,93,2.95,RU,1702247033
65,burutu,5.3509,5.5076,27.25,81,84,2.12,NG,1702247034
66,cole harbour,44.6724,-63.4751,7.06,96,97,0.45,CA,1702246625
67,mata-utu,-13.2816,-176.1745,28.09,76,100,6.68,WF,1702247035
68,marathon,44.9,-89.7668,-4.42,79,100,4.12,US,1702247004
69,utrik,11.2278,169.8474,27.28,76,60,9.83,MH,1702246615
70,stanley,54.868,-1.6985,6.27,96,100,2.57,GB,1702246593
71,dudinka,69.4058,86.1778,-26.88,97,100,5.36,RU,1702246736
72,sinop,41.7711,34.8709,5.77,83,83,3.39,TR,1702246745
73,crane,31.3974,-102.3501,11.87,20,2,5.02,US,1702246568
74,nzerekore,7.7562,-8.8179,21.6,39,95,0.39,GN,1702247037
75,kirensk,57.7853,108.1119,-33.35,99,97,1.34,RU,1702246659
76,vadso,70.0744,29.7487,-11.91,85,75,11.32,NO,1702246661
77,yellowknife,62.456,-114.3525,-13.02,98,100,9.39,CA,1702246582
78,ribeira grande,38.5167,-28.7,18.21,78,51,7.6,PT,1702246601
79,gamba,-2.65,10.0,26.38,83,100,3.04,GA,1702247039
80,lebu,-37.6167,-73.65,14.12,83,100,9.37,CL,1702246607
81,blackmans bay,-43.0167,147.3167,17.07,57,65,0.89,AU,1702246573
82,ilulissat,69.2167,-51.1,-2.99,80,100,6.69,GL,1702246600
83,bhamo,24.2667,97.2333,15.42,80,2,0.66,MM,1702247041
84,cabo san lucas,22.8909,-109.9124,29.78,51,0,6.69,MX,1702247003
85,georgetown,5.4112,100.3354,26.96,95,20,1.03,MY,1702246616
86,aomori,40.8244,140.74,3.86,57,75,6.69,JP,1702246806
87,weno,7.4515,151.8468,28.97,74,100,4.12,FM,1702246724
88,arraial do cabo,-22.9661,-42.0278,23.28,76,100,4.83,BR,1702246619
89,port alfred,-33.5906,26.891,16.77,93,24,1.57,ZA,1702247043
90,st. john's,47.5649,-52.7093,-0.47,88,46,1.79,CA,1702246402
91,kapuskasing,49.4169,-82.4331,-5.95,86,100,3.09,CA,1702246661
92,shuangjiang,26.1547,109.7138,17.81,96,96,0.22,CN,1702247045
93,okakarara,-20.5833,17.4333,22.3,22,2,3.47,NA,1702247045
94,kapa'a,22.0752,-159.319,27.18,74,20,4.12,US,1702246669
95,lorengau,-2.0226,147.2712,27.68,83,98,6.22,PG,1702246751
96,prado,-17.3411,-39.2208,24.86,83,0,2.22,BR,1702246558
97,whakatane,-37.9585,176.9854,18.82,92,94,0.45,NZ,1702246738
98,sinabang,2.4803,96.3801,25.72,86,100,1.29,ID,1702246608
99,anadyr,64.75,177.4833,-25.56,75,20,5.0,RU,1702246710
100,sarkand,45.41,79.9186,-7.69,85,100,1.17,KZ,1702247047
101,muravlenko,63.7898,74.523,-37.94,100,26,1.48,RU,1702247048
102,enewetak,11.3474,162.3373,27.69,76,98,7.78,MH,1702246619
103,lihue,21.9789,-159.3672,26.77,75,20,4.12,US,1702246627
104,okha,53.5739,142.9478,-19.49,85,100,11.39,RU,1702246805
105,sarupathar,26.1984,93.8094,15.34,96,2,0.53,IN,1702246905
106,lazaro cardenas,17.9583,-102.2,28.1,63,100,2.03,MX,1702246688
107,mount gambier,-37.8333,140.7667,16.06,84,100,5.94,AU,1702246612
108,cururupu,-1.8283,-44.8683,25.6,84,61,2.42,BR,1702247050
109,sao felix do xingu,-6.6447,-51.995,31.06,48,94,1.2,BR,1702247051
110,tughyl,47.7252,84.2063,-13.3,89,100,2.24,KZ,1702247051
111,morehead city,34.7229,-76.726,20.02,86,100,7.2,US,1702246965
112,bouafle,6.9904,-5.7442,22.01,49,81,1.5,CI,1702247052
113,soio,-6.1349,12.3689,27.09,77,99,3.92,AO,1702247052
114,oriximina,-1.7656,-55.8661,29.13,64,96,1.46,BR,1702247052
115,sao tome,0.3365,6.7273,26.61,85,97,1.69,ST,1702247053
116,bovalino,38.149,16.174,15.19,72,8,6.7,IT,1702247053
117,magadan,59.5667,150.8,-6.21,81,90,8.73,RU,1702247054
118,puerto ayora,-0.7393,-90.3518,27.98,78,29,4.03,EC,1702246590
119,vostochnyy,55.8167,37.8667,-8.83,93,100,4.37,RU,1702247055
120,menongue,-14.6585,17.691,19.55,82,100,1.9,AO,1702246719
121,nova sintra,14.8667,-24.7167,23.1,74,100,4.22,CV,1702246670
122,kisangani,0.5167,25.2,21.74,96,100,1.14,CD,1702247056
123,viedma,-40.8135,-62.9967,27.35,23,6,9.5,AR,1702247006
124,olonkinbyen,70.9221,-8.7187,-4.96,56,46,2.78,SJ,1702246614
125,minas novas,-17.2186,-42.5903,27.08,51,72,4.65,BR,1702247057
126,yuzhno-kurilsk,44.0306,145.8556,0.76,76,99,4.95,RU,1702247057
127,nova vas,45.7717,14.5058,2.3,95,27,1.57,SI,1702247057
128,polyarnyy,69.1989,33.4478,-11.8,86,97,8.25,RU,1702247058
129,honefoss,60.168,10.2565,-1.58,96,100,2.43,NO,1702246854
130,san carlos de bariloche,-41.1456,-71.3082,26.86,24,0,4.63,AR,1702247059
131,east ballina,-28.8667,153.5833,26.0,56,86,3.65,AU,1702247059
132,ialibu,-6.2821,143.9935,15.8,91,100,0.57,PG,1702247033
133,koz'modem'yansk,56.3367,46.5711,-20.0,88,100,4.53,RU,1702247060
134,jinchang,38.4953,102.1739,-2.39,47,100,1.68,CN,1702247060
135,mudgee,-32.5943,149.5871,25.9,38,43,1.07,AU,1702247060
136,sanming,26.2486,117.6186,19.82,90,54,1.31,CN,1702247061
137,rosales,15.8944,120.6328,23.24,81,70,1.22,PH,1702247061
138,mount pearl,47.5166,-52.7813,-0.93,88,20,2.06,CA,1702246516
139,myitkyina,25.3833,97.4,14.89,88,4,1.08,MM,1702247062
140,rosetta,31.4044,30.4164,16.96,66,100,4.26,EG,1702247062
141,tazacorte,28.629,-17.9293,21.19,44,0,4.47,ES,1702246832
142,vorgashor,67.5833,63.95,-24.93,100,100,3.04,RU,1702246691
143,opuwo,-18.0607,13.84,22.71,35,5,2.47,NA,1702247063
144,biltine,14.5333,20.9167,20.64,17,71,2.67,TD,1702247064
145,longyearbyen,78.2186,15.6401,0.91,64,40,8.23,SJ,1702246655
146,wailua homesteads,22.0669,-159.378,26.44,76,20,4.12,US,1702246675
147,la passe,45.5549,-0.8967,15.13,95,100,9.91,FR,1702246684
148,qaqortoq,60.7167,-46.0333,-9.12,75,94,1.79,GL,1702246492
149,lautoka,-17.6167,177.4667,27.92,44,40,6.69,FJ,1702247066
150,puerto baquerizo moreno,-0.9,-89.6,27.55,69,20,5.14,EC,1702246676
151,nabire,-3.3667,135.4833,25.71,80,100,1.14,ID,1702246655
152,remire-montjoly,4.9167,-52.2667,28.02,78,20,2.06,GF,1702246644
153,burang,30.25,81.1667,-13.2,45,2,1.17,CN,1702247067
154,al hamul,31.3115,31.1477,15.98,67,100,2.43,EG,1702247067
155,kalaleh,37.3807,55.4916,15.64,36,46,1.64,IR,1702247068
156,rosarito,32.3333,-117.0333,27.18,23,17,1.58,MX,1702246507
157,prineville,44.2999,-120.8345,9.51,92,100,0.0,US,1702247069
158,benguela,-12.5763,13.4055,26.43,81,89,2.02,AO,1702247069
159,novaya mayna,54.15,49.75,-24.29,94,100,2.35,RU,1702247070
160,medina,24.4686,39.6142,23.24,15,0,7.72,SA,1702247070
161,fortuna,40.5982,-124.1573,14.96,69,0,0.45,US,1702246642
162,yaren,-0.5472,166.916,28.36,74,30,1.41,NR,1702247071
163,prince rupert,54.3161,-130.3201,6.05,74,75,8.23,CA,1702246605
164,adamovka,51.5223,59.9396,-21.51,93,12,4.74,RU,1702247071
165,hadibu,12.65,54.0333,24.73,71,45,5.18,YE,1702246749
166,okhotsk,59.3833,143.3,-6.45,89,100,1.53,RU,1702246806
167,colonia,50.9333,6.95,12.16,80,100,3.6,DE,1702246537
168,gao,16.6362,1.637,20.58,19,8,6.2,ML,1702247073
169,punta arenas,-53.15,-70.9167,9.06,57,20,5.14,CL,1702246293
170,evinayong,1.4368,10.5512,20.88,98,100,0.77,GQ,1702247074
171,labrador city,52.9463,-66.9114,-1.05,93,100,7.2,CA,1702247074
172,marysville,48.0518,-122.1771,12.86,93,100,6.17,US,1702247075
173,yerofey pavlovich,53.9667,121.9667,-31.89,94,11,1.48,RU,1702247075
174,prieska,-29.6641,22.7474,17.48,52,0,8.32,ZA,1702247076
175,asosa,10.0667,34.5333,18.82,35,30,2.43,ET,1702247076
176,pont rouge,48.8833,-72.0825,4.16,96,100,3.24,CA,1702247076
177,kerikeri,-35.2268,173.9474,21.06,80,81,1.21,NZ,1702246815
178,san agustin de valle fertil,-30.6335,-67.4682,28.97,26,0,11.9,AR,1702247078
179,atherton,53.5237,-2.4935,10.5,91,100,3.58,GB,1702247076
180,karratha,-20.7377,116.8463,25.23,19,6,7.69,AU,1702246746
181,miahuatlan de porfirio diaz,16.3333,-96.6,20.2,61,59,6.4,MX,1702247018
182,tolanaro,-25.0319,46.9987,23.98,94,51,4.22,MG,1702246709
183,smithers,54.7804,-127.1743,-2.82,86,40,1.54,CA,1702247080
184,shimoda,34.6667,138.95,12.84,60,100,2.69,JP,1702247080
185,carnarvon,-24.8667,113.6333,25.15,25,0,8.08,AU,1702246745
186,darnah,32.767,22.6367,16.23,63,79,5.04,LY,1702247081
187,punta cardon,11.6581,-70.215,27.29,78,3,12.67,VE,1702247081
188,zyrya,40.3661,50.2917,10.05,77,5,13.1,AZ,1702247081
189,lata,40.1629,-8.3327,15.6,94,20,1.66,PT,1702247082
190,constantia,44.1833,28.65,0.39,85,55,4.31,RO,1702246632
191,cuajinicuilapa,16.4667,-98.4167,31.1,53,100,3.51,MX,1702247083
192,saint-felix-de-valois,46.1668,-73.4324,3.25,98,100,0.45,CA,1702247083
193,fale old settlement,-9.3852,-171.2468,28.58,79,100,5.22,TK,1702246705
194,smirnovo,54.5125,69.4222,-36.09,98,17,3.02,KZ,1702247084
195,camana,-16.6228,-72.7111,21.49,73,48,3.25,PE,1702247084
196,codrington,-38.2667,141.9667,16.01,81,100,7.56,AU,1702246651
197,iquique,-20.2208,-70.1431,22.02,67,15,0.99,CL,1702247085
198,whitehorse,60.7161,-135.0538,-14.55,84,100,1.54,CA,1702246604
199,howrah,22.5892,88.3103,16.0,88,0,0.0,IN,1702246950
200,embi,48.8264,58.1442,-17.45,76,3,7.06,KZ,1702247086
201,hawaiian paradise park,19.5933,-154.9731,25.73,94,100,2.57,US,1702246623
202,nyurba,63.2842,118.3319,-29.17,98,100,2.5,RU,1702246588
203,san ignacio,17.1561,-89.0714,29.08,79,40,3.09,BZ,1702247087
204,malango,-2.9627,119.9001,19.65,96,99,1.42,ID,1702247087
205,maxixe,-23.8597,35.3472,25.74,94,33,4.38,MZ,1702246597
206,miquelon,47.0975,-56.3814,2.0,86,96,5.48,PM,1702247088
207,mili,6.0815,171.735,27.79,83,78,7.19,MH,1702246526
208,nogliki,51.8333,143.1667,-19.81,86,90,5.81,RU,1702247088
209,afaahiti,-17.75,-149.2833,29.93,83,90,11.07,PF,1702246659
210,leh,34.1667,77.5833,-8.71,38,79,1.74,IN,1702247089
211,harper,4.375,-7.7169,26.81,82,26,3.07,LR,1702247089
212,tura,25.5198,90.2201,13.8,55,0,1.63,IN,1702246589
213,regina,50.4501,-104.6178,1.06,74,20,3.09,CA,1702247082
214,erdenet,49.0333,104.0833,-23.45,97,100,0.16,MN,1702247090
215,xiongzhou,25.1167,114.3,19.8,92,31,0.82,CN,1702247091
216,polatli,39.5772,32.1413,5.2,81,85,2.2,TR,1702247091
217,hohhot,40.8106,111.6522,-1.84,93,20,1.0,CN,1702247092
218,chifeng,42.2683,118.9636,-12.98,74,100,2.09,CN,1702247092
219,sitka,57.0531,-135.33,2.94,87,100,2.57,US,1702246619
220,aral,40.5156,81.2636,-2.48,53,74,3.89,CN,1702246609
221,al qusayr,34.5091,36.5798,12.82,56,74,1.46,SY,1702247093
222,susuman,62.7833,148.1667,-22.23,99,97,2.68,RU,1702246579
223,gebre guracha,9.8,38.4,12.51,55,24,1.24,ET,1702247094
224,el alto,-4.2714,-81.2147,24.81,70,4,7.26,PE,1702247094
225,lompoc,34.6391,-120.4579,25.08,44,0,5.66,US,1702246786
226,bom conselho,-9.1697,-36.6797,22.81,62,10,7.13,BR,1702247095
227,saudarkrokur,65.7461,-19.6394,-6.0,84,51,4.82,IS,1702247095
228,palu,-0.8917,119.8707,24.45,91,100,0.94,ID,1702247095
229,jiehu,35.5428,118.455,-0.23,89,100,7.57,CN,1702247096
230,klyuchi,52.2667,79.1667,-21.33,86,21,2.47,RU,1702246750
231,chernyshevskiy,63.0128,112.4714,-30.23,99,100,1.33,RU,1702247096
232,haiku-pauwela,20.9219,-156.3051,31.01,43,20,2.57,US,1702246611
233,arcen,51.4767,6.1806,11.79,89,75,7.72,NL,1702247097
234,inirida,3.8653,-67.9239,27.98,74,40,0.41,CO,1702247097
235,hamilton,39.1834,-84.5333,2.7,81,100,4.63,US,1702247043
236,nar'yan-mar,67.6713,53.087,-22.72,91,98,4.92,RU,1702246630
237,pedernales,18.0384,-71.744,28.25,68,6,2.53,DO,1702247098
238,fang,19.9169,99.2145,19.32,98,4,0.48,TH,1702247099
239,bhadasar,28.2833,74.3167,14.52,31,0,1.32,IN,1702247099
240,negombo,7.2083,79.8358,24.03,100,40,1.03,LK,1702247099
241,knyaze-volkonskoye,48.4642,135.4567,-23.7,63,18,8.94,RU,1702247100
242,grand falls-windsor,48.9332,-55.6649,-0.83,82,99,3.01,CA,1702246602
243,hilo,19.7297,-155.09,25.85,94,100,2.57,US,1702247101
244,wagar,16.1525,36.2032,26.37,49,62,4.0,SD,1702247101
245,taltal,-25.4,-70.4833,18.57,72,21,1.15,CL,1702246576
246,nuuk,64.1835,-51.7216,-2.66,74,20,2.57,GL,1702246836
247,kittila,67.6647,24.8936,-13.92,85,75,3.6,FI,1702247102
248,kailua-kona,19.6406,-155.9956,28.32,75,20,4.63,US,1702246654
249,san,13.3034,-4.8956,25.59,11,67,3.81,ML,1702246676
250,sanctuary point,-35.1114,150.629,23.88,69,98,2.53,AU,1702247105
251,les avirons,-21.2418,55.3394,23.05,78,0,2.57,RE,1702247106
252,iskateley,67.6803,53.1512,-22.77,91,99,4.92,RU,1702246811
253,pishva,35.308,51.7267,12.57,32,45,3.68,IR,1702247107
254,howard springs,-12.497,131.047,31.04,92,77,0.32,AU,1702246740
255,loiza,18.4313,-65.8802,26.17,90,40,5.66,PR,1702247108
256,ceres,37.5949,-120.9577,16.23,54,0,2.06,US,1702247109
257,sabang,5.8933,95.3214,26.82,80,100,0.91,ID,1702246791
258,saint-philippe,-21.3585,55.7679,24.77,87,88,5.73,RE,1702247109
259,petropavlovsk-kamchatsky,53.0452,158.6483,1.33,95,100,8.0,RU,1702246662
260,zaozersk,69.4005,32.4476,-14.49,91,87,6.07,RU,1702247110
261,bom jesus,-9.0744,-44.3586,27.03,65,60,0.94,BR,1702247111
262,chibougamau,49.9168,-74.3659,-1.21,93,100,3.6,CA,1702246600
263,galliano,29.4422,-90.2992,16.67,31,0,7.2,US,1702247112
264,boda,4.3189,17.4695,24.85,49,100,1.61,CF,1702247112
265,pacific grove,36.6177,-121.9166,20.79,50,0,6.71,US,1702246594
266,kotel'nikovo,47.6317,43.1461,-4.22,79,99,6.52,RU,1702247113
267,alofi,-19.0595,-169.9187,24.94,94,100,6.17,NU,1702246581
268,kapit,2.0167,112.9333,22.93,98,97,0.31,MY,1702247114
269,vorkuta,67.5,64.0,-24.75,100,100,2.97,RU,1702246641
270,porto belo,-27.1578,-48.5531,21.2,100,100,5.32,BR,1702247115
271,jolo,6.05,121.0167,25.03,88,83,0.14,PH,1702247115
272,arkalyk,50.2486,66.9114,-22.66,88,57,4.11,KZ,1702247115
273,roswell,34.0232,-84.3616,8.77,94,100,7.2,US,1702247116
274,labuan,5.2767,115.2417,26.2,94,40,0.0,MY,1702247116
275,beitbridge,-22.2167,30.0,23.19,72,100,8.03,ZW,1702247117
276,fort st. john,56.2499,-120.8529,-1.06,69,40,5.14,CA,1702246961
277,zhanaozen,43.3,52.8,-3.13,87,100,7.49,KZ,1702247118
278,whitby,54.4877,-0.615,7.3,89,84,0.89,GB,1702246373
279,levuka,50.1834,-105.4011,0.9,59,19,1.78,CA,1702247118
280,dongola,19.1667,30.4833,21.7,19,54,3.37,SD,1702247119
281,hermanus,-34.4187,19.2345,16.95,78,0,4.4,ZA,1702246580
282,lerwick,60.1545,-1.1494,7.0,69,100,8.54,GB,1702246765
283,sesheke,-17.4759,24.2968,21.4,83,100,2.56,ZM,1702247120
284,ban lam luk ka,13.9774,100.7778,27.98,89,20,2.06,TH,1702247120
285,el granada,37.5027,-122.4694,16.94,62,0,1.34,US,1702246700
286,dhidhdhoo,6.8833,73.1,28.43,78,95,5.43,MV,1702246618
287,sanga-sanga,5.0725,119.7853,27.19,75,80,1.54,PH,1702247121
288,bairnsdale,-37.8333,147.6167,19.47,95,100,0.45,AU,1702246716
289,pitiquito,30.7,-112.0833,23.94,8,0,2.87,MX,1702247122
290,cidade velha,14.9167,-23.6167,25.26,57,0,4.63,CV,1702247122
291,dunedin,-45.8742,170.5036,14.67,59,10,1.99,NZ,1702246623
292,ilha de mocambique,-15.0342,40.7358,27.56,85,14,4.72,MZ,1702247123
293,san patricio,28.017,-97.5169,17.14,18,0,4.9,US,1702246629
294,sandnessjoen,66.0217,12.6316,-0.88,69,75,1.54,NO,1702247124
295,la'ie,21.6477,-157.9253,29.98,72,23,4.02,US,1702246595
296,ribas do rio pardo,-20.4431,-53.7592,23.69,92,100,2.55,BR,1702247125
297,camara de lobos,32.6333,-16.9667,21.35,91,75,1.54,PT,1702247125
298,kone,-21.0595,164.8658,27.83,45,98,3.1,NC,1702246635
299,nadym,65.5333,72.5167,-32.02,96,68,3.76,RU,1702246627
300,houma,29.5958,-90.7195,16.0,42,0,7.72,US,1702247126
301,port saint john's,-31.6229,29.5448,18.11,85,100,1.42,ZA,1702246717
302,mount isa,-20.7333,139.5,23.87,53,97,6.69,AU,1702246588
303,klaksvik,62.2266,-6.589,7.51,91,100,6.08,FO,1702247128
304,mirnyy,62.5353,113.9611,-29.18,96,100,3.1,RU,1702246753
305,leninskoye,41.7589,69.3864,-0.98,79,100,1.68,KZ,1702247129
306,kavaratti,10.5669,72.642,28.67,72,96,1.06,IN,1702246638
307,krasnoturansk,54.3186,91.5639,-32.09,100,93,1.34,RU,1702247130
308,andergrove,-21.0833,149.1833,24.25,76,100,12.76,AU,1702247130
309,tangalle,6.024,80.7911,24.3,91,100,1.71,LK,1702247130
310,hereford,52.0568,-2.7148,11.14,87,86,1.79,GB,1702247131
311,greenville,35.6127,-77.3663,19.09,98,100,6.17,US,1702247039
312,portmore,17.9702,-76.8672,29.98,67,20,9.26,JM,1702247132
313,tselinnoye,53.0833,85.6667,-31.72,100,25,1.25,RU,1702247132
314,hailar,49.2,119.7,-37.08,100,87,2.36,CN,1702247132
315,sparti,37.0733,22.4297,10.53,94,100,1.85,GR,1702247133
316,hegang,47.4,130.3667,-24.27,85,2,2.41,CN,1702247133
317,kibiti,-7.7218,38.9375,22.09,97,91,1.21,TZ,1702247134
318,mayqayyng,51.4625,75.7986,-24.65,98,48,2.46,KZ,1702247134
319,trinidad,-14.8333,-64.9,33.99,52,20,2.57,BO,1702247135
320,avanigadda,16.0215,80.9181,21.64,84,20,2.38,IN,1702247135
321,khandyga,62.6667,135.6,-33.5,99,100,1.14,RU,1702246755
322,brookings,44.3114,-96.7984,0.03,81,0,0.0,US,1702246907
323,ghat,24.9647,10.1728,14.87,57,100,3.35,LY,1702246793
324,sitia,35.2,26.0986,13.32,80,100,2.42,GR,1702247137
325,borogontsy,62.6683,131.1683,-31.78,94,100,3.68,RU,1702247137
326,cafayate,-26.073,-65.9761,19.86,79,99,4.3,AR,1702247137
327,el calafate,-50.3408,-72.2768,11.28,69,100,4.14,AR,1702247138
328,hithadhoo,-0.6,73.0833,27.65,75,100,2.16,MV,1702246650
329,pimentel,-6.8367,-79.9342,24.16,64,0,9.26,PE,1702246685
330,qinzhou,21.95,108.6167,21.58,90,33,1.21,CN,1702247139
331,liuhe,42.2401,125.7172,-11.6,38,100,3.41,CN,1702247139
332,sambava,-14.2667,50.1667,25.09,88,87,3.61,MG,1702247140
333,panino,51.6467,40.1346,-6.29,88,100,6.2,RU,1702247140
334,deltebre,40.7499,0.7868,15.65,80,62,1.06,ES,1702247141
335,merritt,50.1123,-120.7942,2.96,82,100,1.34,CA,1702247141
336,veraval,20.9,70.3667,22.37,47,8,4.36,IN,1702246584
337,suva,-18.1416,178.4415,26.71,61,75,3.6,FJ,1702246672
338,guillermo zuniga,24.0167,-99.2,18.06,26,0,4.69,MX,1702247143
339,ulladulla,-35.35,150.4667,25.98,69,100,2.47,AU,1702247143
340,zbaszyn,52.2509,15.9252,5.59,90,100,4.09,PL,1702247144
341,palmas,-10.2128,-48.3603,25.93,89,75,4.12,BR,1702247144
342,sisimiut,66.9395,-53.6735,-3.77,93,100,5.9,GL,1702246733
343,mielec,50.2871,21.4239,2.19,91,100,4.22,PL,1702247145
344,kushiro,42.975,144.3747,-2.47,54,20,4.63,JP,1702247145
345,kharp,66.8014,65.8081,-27.52,100,97,1.6,RU,1702247146
346,ulsteinvik,62.3432,5.8487,2.95,87,47,1.79,NO,1702246761
347,sorong,-0.8833,131.25,27.4,79,100,1.1,ID,1702247146
348,ranot,7.7777,100.3213,26.27,84,62,1.83,TH,1702247147
349,port lincoln,-34.7333,135.8667,16.24,96,100,6.21,AU,1702246635
350,timbuktu,16.7735,-3.0074,21.46,18,1,5.2,ML,1702247147
351,sheopur,25.6667,76.7,15.59,51,1,0.95,IN,1702247148
352,manokwari,-0.8667,134.0833,26.07,79,100,2.3,ID,1702246678
353,madarounfa,13.3087,7.156,20.48,22,10,6.24,NE,1702247149
354,ishigaki,24.3448,124.1572,22.07,94,55,1.54,JP,1702247149
355,nosy varika,-20.5833,48.5333,24.95,90,38,2.07,MG,1702247150
356,tome acu,-2.4189,-48.1522,26.06,80,89,1.44,BR,1702247150
357,troy,42.6056,-83.1499,4.2,83,100,2.06,US,1702247150
358,gaiman,-43.2897,-65.4929,29.73,18,23,11.32,AR,1702246943
359,dwarka,22.2394,68.9678,22.43,54,5,3.1,IN,1702247151
360,fortaleza,-3.7227,-38.5247,28.37,76,40,4.63,BR,1702246645
361,freetown,8.484,-13.2299,26.84,77,90,3.14,SL,1702247152
362,kingston,17.997,-76.7936,29.53,68,20,9.26,JM,1702247010
363,east london,-33.0153,27.9116,16.9,78,90,2.74,ZA,1702246776
364,yeraliyev,43.2,51.65,-0.12,84,100,6.05,KZ,1702247153
365,molde,62.7375,7.1591,-0.09,74,40,4.12,NO,1702247153
366,qaryat suluq,31.6682,20.2521,15.38,76,75,3.35,LY,1702247154
367,berdigestyakh,62.0989,126.6992,-27.33,92,100,4.59,RU,1702246791
368,igarka,67.4667,86.5833,-30.89,98,100,2.31,RU,1702246599
369,lohardaga,23.4333,84.6833,12.41,58,0,0.66,IN,1702247155
370,aldan,58.6031,125.3894,-32.0,97,100,2.56,RU,1702247155
371,urucui,-7.2294,-44.5561,29.0,57,63,1.48,BR,1702247155
372,rudbar,30.15,62.6,13.07,33,1,0.73,AF,1702247156
373,cuyamel,15.6667,-88.2,30.01,85,33,2.04,HN,1702247156
374,la foa,-21.7108,165.8276,26.09,50,100,1.15,NC,1702247156
375,arcachon,44.5875,-1.0519,17.03,88,100,4.12,FR,1702247157
376,tionk essil,12.7856,-16.5217,23.98,37,81,3.1,SN,1702247157
377,rawai,7.7797,98.3253,26.06,82,100,3.51,TH,1702247158
378,guildwood,43.7434,-79.1966,6.24,67,96,3.94,CA,1702247158
379,pale,43.8161,18.5694,-1.14,93,75,0.51,BA,1702247158
380,worland,44.0169,-107.9554,3.27,56,0,2.57,US,1702247159
381,owando,-0.4819,15.8999,22.97,94,100,1.06,CG,1702247159
382,pisco,-13.7,-76.2167,23.03,64,0,4.63,PE,1702246628
383,ulanhot,46.0833,122.0833,-21.52,73,15,2.09,CN,1702246646
384,sosnovka,56.255,51.2842,-27.54,98,100,1.31,RU,1702247160
385,buka,40.8108,69.1986,2.94,60,100,2.12,UZ,1702247160
386,al burayqah,30.4062,19.5739,17.46,70,42,3.76,LY,1702246795
387,juhaynah,26.6732,31.4976,14.18,29,100,2.8,EG,1702247161
388,yola,9.2,12.4833,24.26,16,0,1.27,NG,1702247162
389,brisas barra de suchiate,14.55,-92.2167,32.1,71,25,2.97,MX,1702247162
390,san julian,21.0167,-102.1667,19.64,41,81,5.05,MX,1702246819
391,hami,42.8,93.45,-2.81,73,27,1.86,CN,1702247163
392,oranjemund,-28.55,16.4333,16.21,91,0,3.91,NA,1702247163
393,maceio,-9.6658,-35.7353,25.69,83,0,3.09,BR,1702247164
394,sao joao da barra,-21.6403,-41.0511,24.05,79,28,3.17,BR,1702246705
395,dauphin,51.1494,-100.0502,-7.92,86,0,0.0,CA,1702247054
396,plasnica,41.4672,21.1231,1.18,91,95,1.15,MK,1702247165
397,eureka,40.8021,-124.1637,15.11,71,100,0.45,US,1702247165
398,kalix,65.853,23.1565,-9.21,96,100,3.12,SE,1702246810
399,xingtai,37.0631,114.4942,-3.57,96,100,3.42,CN,1702247166
400,kenai,60.5544,-151.2583,-5.97,89,100,12.86,US,1702246625
401,porto novo,6.4965,2.6036,28.9,83,3,3.07,BJ,1702247167
402,keflavik,64.0049,-22.5624,1.24,93,100,4.63,IS,1702246711
403,smara,26.7384,-11.6719,22.44,23,90,4.54,EH,1702247168
404,vernon,50.2581,-119.2691,4.78,90,100,2.57,CA,1702246643
405,portland,45.5234,-122.6762,12.56,94,100,5.66,US,1702247092
406,madalena,41.2162,-8.3345,15.42,94,98,1.95,PT,1702247169
407,maqat,47.65,53.3167,-7.54,25,6,7.43,KZ,1702247169
408,cidreira,-30.1811,-50.2056,20.16,94,97,8.12,BR,1702247170
409,rakvere,59.3464,26.3558,-9.75,96,98,3.41,EE,1702247170
410,ust'-ilimsk,58.0006,102.6619,-35.31,100,33,0.45,RU,1702246774
411,suffolk,40.8668,-72.7996,14.67,95,100,7.2,US,1702247126
412,boguchany,58.3814,97.4531,-33.97,100,36,0.89,RU,1702247171
413,broome,42.2506,-75.833,7.61,95,100,4.63,US,1702247172
414,purkersdorf,48.1951,16.1626,2.38,86,2,1.34,AT,1702247172
415,buala,-8.145,159.5921,28.26,74,73,0.88,SB,1702247172
416,puerto aysen,-45.4,-72.7,12.61,99,100,2.3,CL,1702246673
417,llorente,11.4119,125.5458,25.81,86,100,3.52,PH,1702247174
418,mossel bay,-34.1831,22.146,17.51,80,6,5.62,ZA,1702246778
419,ambositra,-20.5167,47.25,17.65,92,48,0.29,MG,1702247174
420,la ronge,55.1001,-105.2842,-5.86,79,75,2.06,CA,1702246575
421,zijinglu,34.76,112.9714,-1.69,92,100,3.04,CN,1702247175
422,salamanca,40.8333,-6.0,9.88,95,62,2.84,ES,1702247176
423,sangkhla buri,15.1555,98.4536,21.96,99,27,0.59,TH,1702247176
424,yamada,39.4667,141.95,4.26,66,100,2.38,JP,1702247177
425,clinton,42.587,-82.9199,4.94,81,100,3.09,US,1702247072
426,natal,-5.795,-35.2094,27.36,74,20,4.12,BR,1702247140
427,ivolginsk,51.7492,107.2837,-35.19,68,13,1.0,RU,1702247178
428,tubarjal,30.4999,38.216,17.57,51,100,3.8,SA,1702247179
429,winslow,35.0242,-110.6974,8.1,21,0,2.06,US,1702247119
430,musoma,-1.5,33.8,21.45,79,98,2.23,TZ,1702247180
431,imuris,30.7833,-110.8667,23.2,7,0,1.64,MX,1702247180
432,waddan,29.1614,16.139,12.67,70,0,3.74,LY,1702247181
433,mugia,43.1041,-9.2179,18.28,85,100,11.22,ES,1702246708
434,hokuto,41.8848,140.639,-0.99,59,75,5.66,JP,1702247182
435,singkil,-7.9855,111.4161,23.97,91,86,2.15,ID,1702247182
436,twon-brass,4.3151,6.2418,27.71,80,68,4.46,NG,1702247183
437,aykhal,66.0,111.5,-28.35,99,100,1.94,RU,1702246613
438,lamarque,-39.423,-65.7021,33.03,10,55,7.59,AR,1702247183
439,'alaqahdari dishu,30.4374,63.313,11.96,32,0,1.29,AF,1702247184
440,westport,41.1415,-73.3579,14.9,93,100,5.81,US,1702246495
441,sokoni,-6.4333,39.55,27.45,77,85,3.65,TZ,1702247185
442,coquimbo,-29.9533,-71.3436,16.85,77,75,3.6,CL,1702246712
443,cestos city,5.46,-9.5828,27.28,81,44,3.27,LR,1702246806
444,vilyuchinsk,52.9306,158.4028,2.15,99,100,4.46,RU,1702246657
445,rio gallegos,-51.6226,-69.2181,14.03,38,0,3.09,AR,1702247186
446,new norfolk,-42.7826,147.0587,17.73,45,83,1.38,AU,1702246634
447,talcahuano,-36.7167,-73.1167,17.82,63,0,8.75,CL,1702246577
448,puerto deseado,-47.7503,-65.8938,12.73,67,100,6.47,AR,1702247187
449,visby,57.6409,18.296,1.69,100,100,4.63,SE,1702247187
450,aasiaat,68.7098,-52.8699,-5.02,94,100,7.52,GL,1702246554
451,atar,20.5169,-13.0499,22.07,21,1,3.63,MR,1702247188
452,ekibastuz,51.6667,75.3667,-24.21,99,85,2.07,KZ,1702247189
453,talca,-35.4333,-71.6667,31.42,19,51,6.45,CL,1702247189
454,al ghayzah,16.2079,52.176,23.42,63,14,1.41,YE,1702246740
455,isangel,-19.55,169.2667,28.06,54,75,2.57,VU,1702246797
456,lavaltrie,45.8834,-73.2824,6.23,100,100,2.57,CA,1702247190
457,anshun,26.25,105.9333,13.42,94,42,1.76,CN,1702247190
458,coahuayana de hidalgo,18.7,-103.6583,28.81,59,100,0.95,MX,1702247191
459,lensk,60.7253,114.9278,-26.91,93,100,4.29,RU,1702247191
460,totness,5.8833,-56.3167,26.04,85,45,3.72,SR,1702247191
461,saviese,46.2511,7.3456,7.68,89,100,1.1,CH,1702247192
462,mahanoro,-19.9,48.8,24.64,90,27,1.47,MG,1702247192
463,camiri,-20.05,-63.5167,25.88,65,100,1.54,BO,1702247193
464,puerto quijarro,-17.7833,-57.7667,32.54,46,98,1.52,BO,1702246918
465,noumea,-22.2763,166.4572,27.99,99,99,6.8,NC,1702246810
466,north battleford,52.7834,-108.2847,-1.44,74,100,2.57,CA,1702247194
467,ancud,-41.8697,-73.8203,14.57,76,93,4.0,CL,1702246722
468,la palma,33.8464,-118.0467,27.29,18,75,2.57,US,1702246786
469,nohar,29.1833,74.7667,14.96,27,0,2.2,IN,1702247195
470,serdar,38.9764,56.2757,11.46,47,33,1.48,TM,1702247195
471,dryden,49.7833,-92.7503,-5.84,86,100,2.06,CA,1702246621
472,san francisco de borja,27.9022,-106.6849,13.29,21,0,2.89,MX,1702247196
473,matola,-25.9622,32.4589,20.97,94,75,5.14,MZ,1702247197
474,newman,37.3138,-121.0208,16.8,51,100,0.89,US,1702246791
475,flying fish cove,-10.4217,105.6791,24.82,83,75,3.09,CX,1702247197
476,tsiombe,-25.3,45.4833,24.12,92,41,0.89,MG,1702246651
477,inhambane,-23.865,35.3833,25.99,93,31,4.69,MZ,1702247198
478,touros,-5.1989,-35.4608,26.4,69,52,5.08,BR,1702247031
479,jabor,5.921,169.6434,27.95,83,56,6.93,MH,1702246610
480,walvis bay,-22.9575,14.5053,17.27,82,18,3.6,NA,1702247199
481,busayra,30.7376,35.6078,13.25,41,90,2.15,JO,1702247200
482,moranbah,-22.0016,148.0466,23.09,71,100,9.87,AU,1702247201
483,preobrazheniye,42.9019,133.9064,-11.69,56,16,3.58,RU,1702246624
484,tadine,-21.55,167.8833,24.87,59,98,7.04,NC,1702247202
485,gandi,12.9636,5.7434,21.91,19,8,5.4,NG,1702247202
486,george town,5.4112,100.3354,26.96,95,20,1.03,MY,1702246996
487,fort frances,48.5999,-93.4003,-5.88,86,6,1.54,CA,1702247203
488,male,4.1748,73.5089,26.97,89,75,2.57,MV,1702247203
489,south hedland,-20.4089,118.5983,22.96,25,15,4.63,AU,1702247204
490,laojunmiao,39.8333,97.7333,-3.81,52,99,1.6,CN,1702246769
491,ad dawadimi,24.5077,44.3924,12.64,24,97,4.05,SA,1702247204
492,moyynkum,44.2914,72.9469,-6.49,69,100,3.7,KZ,1702247205
493,saham,24.1722,56.8886,21.01,51,6,1.68,OM,1702247205
494,franceville,-1.6333,13.5836,22.46,96,100,0.77,GA,1702247206
495,olyokminsk,60.3736,120.4264,-27.01,90,100,3.36,RU,1702247206
496,merizo village,13.2658,144.6691,28.31,88,73,6.42,GU,1702246947
497,uitenhage,-33.7576,25.3971,14.79,92,19,0.64,ZA,1702247207
498,pandan,14.0453,124.1694,26.61,83,76,3.83,PH,1702247207
499,rio branco,-9.9747,-67.81,26.34,100,75,0.51,BR,1702247207
500,hasanpur,28.7167,78.2833,12.44,30,0,1.99,IN,1702247208
501,miles city,46.4083,-105.8406,7.54,45,0,3.09,US,1702247208
502,suntar,62.1444,117.6319,-27.86,95,100,3.15,RU,1702246673
503,gwadar,25.1216,62.3254,23.42,59,1,4.43,PK,1702247209
504,kamina,-8.7386,24.9906,18.51,98,100,2.08,CD,1702247209
505,borgarnes,64.5383,-21.9206,0.03,95,100,1.34,IS,1702247210
506,karagandy,49.8019,73.1021,-27.03,89,8,2.93,KZ,1702247111
507,gorontalo,0.5412,123.0595,24.06,95,99,1.65,ID,1702246922
508,arteaga,18.4667,-102.4167,24.85,49,99,1.11,MX,1702247211
509,makoua,0.0069,15.6333,23.7,94,99,1.16,CG,1702247211
510,toliara,-23.35,43.6667,25.28,77,4,2.88,MG,1702246719
511,mantenopolis,-18.8625,-41.1228,22.97,74,48,5.2,BR,1702247212
512,sao paulo de olivenca,-3.3783,-68.8725,27.1,88,81,0.66,BR,1702247212
513,kavieng,-2.5744,150.7967,28.08,78,97,3.13,PG,1702247213
514,neropolis,-16.4064,-49.2186,31.49,61,47,0.9,BR,1702247213
515,fort bragg,35.139,-79.006,21.01,90,100,3.09,US,1702246710
516,ilebo,-4.3167,20.5833,21.84,89,99,0.32,CD,1702247214
517,chos malal,-37.3781,-70.2709,32.29,9,86,2.25,AR,1702247214
518,copala,16.65,-98.9833,29.7,61,86,2.54,MX,1702246653
519,santa elena de uairen,4.6167,-61.1333,24.91,58,93,1.71,VE,1702247215
520,luderitz,-26.6481,15.1594,18.11,65,2,8.5,NA,1702247215
521,horta,38.5333,-28.6333,17.23,78,63,9.83,PT,1702247215
522,dali,25.7,100.1833,6.31,90,1,1.83,CN,1702247216
523,kuressaare,58.2481,22.5039,0.53,97,100,5.14,EE,1702247216
524,huinan,42.6225,126.2614,-11.56,45,100,3.36,CN,1702247217
525,bell ville,-32.6259,-62.6887,29.81,28,0,3.57,AR,1702247217
526,al muwayh,22.4333,41.7583,16.24,26,51,5.26,SA,1702247217
527,andapa,-14.65,49.65,20.86,99,100,0.65,MG,1702247218
528,decorah,43.3033,-91.7857,-3.19,86,100,2.06,US,1702247218
529,aleg,17.0481,-13.9209,25.94,15,0,5.31,MR,1702247219
530,collie,-33.3667,116.15,11.62,67,0,3.9,AU,1702247219
531,jaisalmer,26.9147,70.9181,17.73,24,0,1.88,IN,1702247110
532,langepas,61.2544,75.2124,-32.55,97,8,2.0,RU,1702247220
533,kafir qala,34.6667,61.0667,11.64,34,0,3.99,AF,1702247220
534,laurel,39.0993,-76.8483,16.47,96,100,2.57,US,1702247118
535,genhe,50.7833,121.5167,-38.02,100,35,0.7,CN,1702246790
536,akureyri,65.6835,-18.0878,-11.04,92,0,0.0,IS,1702246734
537,amahai,-3.3333,128.9167,26.54,81,97,1.88,ID,1702247221
538,padangsidempuan,1.3667,99.2667,21.83,99,100,0.49,ID,1702247222
539,cockburn town,21.4612,-71.1419,25.98,69,40,7.72,TC,1702247222
540,mutlangen,48.8259,9.7971,9.7,73,100,7.58,DE,1702247223
541,nizhneudinsk,54.9076,99.0276,-33.16,99,63,1.1,RU,1702247223
542,massawa,15.6097,39.45,27.69,62,0,0.8,ER,1702246752
543,tha khanon,9.0302,98.9529,25.02,94,40,1.34,TH,1702247224
544,abadan,30.3392,48.3043,14.97,88,100,2.06,IR,1702247224
545,martinopolis,-22.1458,-51.1708,19.62,74,100,4.03,BR,1702247028
546,luau,-10.7073,22.2247,18.43,98,100,1.77,AO,1702247225
547,bangassou,4.7413,22.8184,21.74,76,38,0.42,CF,1702246799
548,labytnangi,66.6572,66.4183,-29.14,100,99,3.11,RU,1702247226
549,chui,-33.6971,-53.4616,18.33,86,18,3.72,UY,1702247226
550,red bluff,40.1785,-122.2358,15.38,41,0,1.54,US,1702247226
551,gualeguay,-33.1416,-59.3097,28.08,34,0,3.42,AR,1702247227
552,ust-tsilma,65.441,52.1498,-25.77,99,100,2.24,RU,1702247227
553,vilhena,-12.7406,-60.1458,25.12,83,75,1.54,BR,1702247227
554,sarmiento,-45.5882,-69.07,20.92,33,100,11.56,AR,1702246742
555,ak-suu,42.4995,78.527,-4.96,67,100,1.96,KG,1702247228
556,dalhart,36.0595,-102.5133,12.99,28,0,5.66,US,1702247228
557,xiaoshi,41.2971,124.1209,-7.2,29,100,1.96,CN,1702247229
558,borshchiv,48.8033,26.0435,-4.42,96,100,1.2,UA,1702247229
559,magione,43.1439,12.2069,8.41,89,85,0.13,IT,1702247230
560,port hedland,-20.3167,118.5667,23.03,25,12,4.63,AU,1702247230
561,palmer,42.1584,-72.3287,15.23,84,100,2.06,US,1702246469
