City_ID,City,Lat,Lng,Max Temp,Humidity,Cloudiness,Wind Speed,Country,Date
0,shiqian,27.5225,108.2281,16.41,96,99,1.49,CN,1702157432
1,grytviken,-54.2811,-36.5092,3.4,85,32,4.73,GS,1702157432
2,touros,-5.1989,-35.4608,26.62,75,97,7.66,BR,1702157433
3,aniva,46.7144,142.5294,-5.94,68,82,9.48,RU,1702157433
4,plastun,44.7561,136.2939,-13.25,50,0,6.06,RU,1702157434
5,borazjan,29.2666,51.2159,20.39,44,1,1.42,IR,1702157435
6,bethel,41.3712,-73.414,11.22,80,0,0.0,US,1702157215
7,albany,42.6001,-73.9662,10.36,79,100,0.89,US,1702157402
8,rabo de peixe,37.8,-25.5833,19.73,99,75,8.75,PT,1702157436
9,bilibino,68.0546,166.4372,-16.65,98,100,1.01,RU,1702157436
10,klyuchi,52.2667,79.1667,-20.72,75,79,1.59,RU,1702157436
11,calingasta,-31.3308,-69.4078,26.86,30,0,7.33,AR,1702157437
12,tazacorte,28.629,-17.9293,20.64,56,20,4.63,ES,1702157437
13,port-aux-francais,-49.35,70.2167,3.34,76,79,11.06,TF,1702157438
14,lago da pedra,-4.3333,-45.1667,28.12,65,100,3.24,BR,1702157438
15,margaret river,-33.95,115.0667,11.37,73,0,4.88,AU,1702157439
16,waitangi,-43.9535,-176.5597,15.46,90,100,4.92,NZ,1702157439
17,haiku-pauwela,20.9219,-156.3051,27.32,63,20,8.23,US,1702157440
18,port lincoln,-34.7333,135.8667,14.04,84,100,9.67,AU,1702157440
19,makassar,-5.14,119.4221,24.03,94,20,1.54,ID,1702157440
20,hawaiian paradise park,19.5933,-154.9731,27.24,78,75,0.89,US,1702157441
21,fort bragg,35.139,-79.006,23.23,58,75,3.6,US,1702157186
22,lihue,21.9789,-159.3672,26.58,67,0,2.57,US,1702157441
23,buala,-8.145,159.5921,28.14,78,100,2.04,SB,1702157442
24,margate,51.3813,1.3862,10.5,69,26,5.81,GB,1702157370
25,edinburgh of the seven seas,-37.0676,-12.3116,14.58,79,95,6.16,SH,1702157443
26,udachny,66.4167,112.4,-29.16,96,100,2.84,RU,1702157443
27,geraldton,-28.7667,114.6,19.23,24,0,5.66,AU,1702157443
28,ad darb,17.7229,42.2526,26.91,67,9,1.29,SA,1702157444
29,iskateley,67.6803,53.1512,-27.21,92,6,2.68,RU,1702157444
30,naze,28.3667,129.4833,21.51,72,99,4.8,JP,1702157445
31,barra de santo antonio,-9.4047,-35.5072,26.6,77,81,5.39,BR,1702157445
32,portland,45.5234,-122.6762,6.55,90,100,5.14,US,1702157311
33,ouro preto do oeste,-10.7481,-62.2158,30.24,59,66,1.63,BR,1702157446
34,port isabel,26.0734,-97.2086,28.37,71,40,6.69,US,1702157446
35,blackmans bay,-43.0167,147.3167,10.96,64,83,0.45,AU,1702157447
36,afaahiti,-17.75,-149.2833,28.93,85,52,8.71,PF,1702157447
37,la cruz,23.9167,-106.9,26.85,45,0,4.32,MX,1702157448
38,kone,-21.0595,164.8658,26.64,50,96,4.56,NC,1702157448
39,winnemucca,40.973,-117.7357,4.03,41,0,3.6,US,1702157449
40,isafjordur,66.0755,-23.124,-2.28,89,76,2.93,IS,1702157449
41,hermanus,-34.4187,19.2345,16.04,82,0,4.61,ZA,1702157449
42,morondava,-20.2833,44.2833,25.75,84,1,2.54,MG,1702157450
43,kizel,59.0471,57.6477,-34.4,100,23,0.79,RU,1702157450
44,adamstown,-25.066,-130.1015,21.4,83,100,5.38,PN,1702157451
45,thompson,55.7435,-97.8558,-6.91,93,100,2.57,CA,1702157451
46,raduzhnyy,62.0961,77.475,-31.88,99,19,2.69,RU,1702157452
47,san patricio,28.017,-97.5169,28.82,54,23,2.79,US,1702157452
48,puerto natales,-51.7236,-72.4875,9.79,78,82,3.06,CL,1702157452
49,ilulissat,69.2167,-51.1,-7.99,73,75,4.12,GL,1702157453
50,kaduy,59.2,37.15,-15.63,91,100,4.77,RU,1702157453
51,iqaluit,63.7506,-68.5145,-6.15,85,75,4.12,CA,1702157453
52,vilyuchinsk,52.9306,158.4028,1.15,97,100,5.86,RU,1702157454
53,pospelikha,51.95,81.7667,-25.68,94,63,1.02,RU,1702157454
54,nogliki,51.8333,143.1667,-13.54,89,100,7.09,RU,1702157455
55,kavala,40.9397,24.4019,7.69,78,24,0.45,GR,1702157456
56,ciechocinek,52.8791,18.7951,0.93,95,100,4.15,PL,1702157456
57,port saint john's,-31.6229,29.5448,19.4,89,100,6.13,ZA,1702157456
58,ancud,-41.8697,-73.8203,13.12,72,34,3.6,CL,1702157457
59,kolonia town,6.964,158.206,29.0,74,75,2.06,FM,1702157457
60,olonkinbyen,70.9221,-8.7187,-6.05,66,41,6.16,SJ,1702157457
61,port mathurin,-19.6833,63.4167,26.17,77,9,4.68,MU,1702157458
62,tabou,4.423,-7.3528,27.27,82,2,2.99,CI,1702157458
63,kapuskasing,49.4169,-82.4331,2.05,100,100,4.63,CA,1702157294
64,nova vicosa,-17.8919,-39.3719,25.43,83,40,4.1,BR,1702157459
65,rio grande,-32.035,-52.0986,23.06,77,32,8.81,BR,1702157459
66,cromer,52.9312,1.2989,10.0,75,81,14.31,GB,1702157460
67,mahina,-17.5065,-149.489,29.87,66,75,1.03,PF,1702157460
68,yellowknife,62.456,-114.3525,-9.71,92,100,6.69,CA,1702157461
69,beacon square,28.2086,-82.7554,28.11,72,41,3.95,US,1702157461
70,la'ie,21.6477,-157.9253,27.81,71,0,2.24,US,1702157461
71,uturoa,-16.7333,-151.4333,27.22,78,79,6.87,PF,1702157462
72,yemetsk,63.4721,41.7941,-19.63,89,48,3.99,RU,1702157462
73,hithadhoo,-0.6,73.0833,27.5,75,97,1.43,MV,1702157463
74,ushuaia,-54.8,-68.3,13.81,47,0,2.57,AR,1702157463
75,gadzhiyevo,69.2551,33.3362,-13.22,89,100,7.87,RU,1702157464
76,longyearbyen,78.2186,15.6401,-4.09,68,40,6.69,SJ,1702157464
77,uberaba,-19.7483,-47.9319,31.32,45,75,4.12,BR,1702157465
78,sur,22.5667,59.5289,22.52,55,1,2.3,OM,1702157465
79,sunrise manor,36.2111,-115.0731,13.75,16,0,9.26,US,1702157304
80,aykhal,66.0,111.5,-29.52,97,100,2.66,RU,1702157466
81,kodiak,57.79,-152.4072,-3.27,63,0,2.06,US,1702157466
82,chonchi,-42.6128,-73.8092,17.29,63,97,0.76,CL,1702157466
83,utrik,11.2278,169.8474,27.43,77,100,8.3,MH,1702157467
84,minas de marcona,-15.2119,-75.1103,17.92,67,100,6.28,PE,1702157467
85,katabu,-4.9333,122.5167,25.08,89,78,0.53,ID,1702157468
86,conduaga,8.862,117.4893,25.57,87,31,1.2,PH,1702157468
87,georgetown,5.4112,100.3354,26.96,89,20,2.06,MY,1702157469
88,luganville,-15.5333,167.1667,26.87,72,100,4.92,VU,1702157469
89,magadan,59.5667,150.8,-3.59,87,100,6.67,RU,1702157469
90,rio brilhante,-21.8019,-54.5464,28.51,66,46,1.63,BR,1702157423
91,polyarnyy,69.1989,33.4478,-12.95,89,100,8.03,RU,1702157470
92,anadyr,64.75,177.4833,-26.72,76,0,5.0,RU,1702157471
93,rawson,-43.3002,-65.1023,19.65,43,44,4.4,AR,1702157456
94,kittila,67.6647,24.8936,-14.92,85,75,2.57,FI,1702157343
95,labytnangi,66.6572,66.4183,-23.21,98,98,0.38,RU,1702157472
96,malvan,16.0667,73.4667,25.39,69,1,2.64,IN,1702157473
97,araxa,-19.5933,-46.9406,24.98,69,0,6.17,BR,1702157474
98,vila franca do campo,37.7167,-25.4333,20.23,99,98,7.9,PT,1702157474
99,tralee,52.2704,-9.7026,8.66,87,22,5.72,IE,1702157320
100,benghazi,32.1167,20.0667,16.29,73,100,6.2,LY,1702157475
101,saldanha,-33.0117,17.9442,16.03,82,0,8.79,ZA,1702157475
102,avarua,-21.2078,-159.775,26.03,83,75,11.83,CK,1702157475
103,isangel,-19.55,169.2667,26.39,58,87,7.98,VU,1702157476
104,umluj,25.0213,37.2685,24.54,62,5,1.67,SA,1702157476
105,cromwell,41.5951,-72.6454,12.04,86,75,1.54,US,1702157329
106,kingston,17.997,-76.7936,29.02,83,84,0.89,JM,1702157360
107,loen,7.7601,168.2307,27.87,75,86,6.59,MH,1702157477
108,vega de alatorre,20.0333,-96.6333,25.62,80,83,2.7,MX,1702157478
109,westport,41.1415,-73.3579,12.53,87,0,4.12,US,1702157246
110,cabo san lucas,22.8909,-109.9124,30.34,54,0,3.6,MX,1702156950
111,jalai nur,49.45,117.7,-28.65,91,5,2.9,CN,1702157479
112,papatowai,-46.5619,169.4708,12.43,53,18,7.54,NZ,1702157480
113,fale old settlement,-9.3852,-171.2468,28.47,73,85,3.24,TK,1702157480
114,stanley,54.868,-1.6985,7.66,93,75,7.2,GB,1702157481
115,mahanoro,-19.9,48.8,24.42,91,18,1.32,MG,1702157481
116,butare,-2.5967,29.7394,14.42,96,63,1.09,RW,1702157482
117,keflavik,64.0049,-22.5624,0.24,80,0,1.54,IS,1702157482
118,puerto real,36.5282,-6.1901,14.78,94,0,1.54,ES,1702157483
119,chimore,-16.9833,-65.1333,31.2,57,75,0.45,BO,1702157483
120,wainwright,52.839,-110.8572,-5.3,74,20,2.64,CA,1702157484
121,saipan,15.1355,145.701,26.39,89,40,4.12,MP,1702157485
122,ojinaga,29.5667,-104.4167,23.53,20,0,3.6,MX,1702157485
123,iquique,-20.2208,-70.1431,21.02,72,96,2.23,CL,1702157486
124,saint-philippe,-21.3585,55.7679,24.77,89,60,5.01,RE,1702157486
125,mae hong son,19.3003,97.9685,20.82,99,21,0.39,TH,1702157487
126,ballina,-28.8667,153.5667,24.88,64,14,3.9,AU,1702157487
127,juba,4.8517,31.5825,30.33,28,94,1.24,SS,1702157488
128,guerrero negro,27.9769,-114.0611,24.18,33,0,0.64,MX,1702157488
129,brigantine,39.4101,-74.3646,11.69,91,62,0.89,US,1702157268
130,fatezh,52.0891,35.8632,-4.45,95,99,4.35,RU,1702157489
131,vorgashor,67.5833,63.95,-22.16,100,100,2.28,RU,1702157489
132,cruzeiro do sul,-29.5128,-51.9853,25.85,66,13,3.48,BR,1702157490
133,sola,-13.8833,167.55,26.81,75,91,8.23,VU,1702157490
134,bathurst,-33.4166,149.5806,23.87,73,19,0.45,AU,1702157491
135,luderitz,-26.6481,15.1594,17.33,68,0,9.06,NA,1702157491
136,cadale,2.7603,46.3222,27.0,78,6,7.6,SO,1702157492
137,crane,31.3974,-102.3501,13.28,11,1,9.47,US,1702157492
138,glace bay,46.1969,-59.957,1.43,85,20,7.2,CA,1702157492
139,kayangel,8.0823,134.7173,28.57,76,99,7.78,PW,1702157493
140,long jetty,-33.3667,151.4833,23.13,90,100,6.88,AU,1702157493
141,whitehorse,60.7161,-135.0538,-9.95,83,100,2.06,CA,1702157494
142,flying fish cove,-10.4217,105.6791,24.82,83,75,4.12,CX,1702157494
143,nelson bay,-32.7167,152.15,22.78,97,100,3.58,AU,1702157494
144,ponta delgada,37.7333,-25.6667,20.4,94,75,8.75,PT,1702157495
145,talnakh,69.4865,88.3972,-34.4,98,99,3.33,RU,1702157495
146,tiksi,71.6872,128.8694,-24.47,98,100,1.99,RU,1702157496
147,shakawe,-18.3667,21.85,25.72,55,64,1.92,BW,1702157497
148,broken hill,-31.95,141.4333,21.96,50,89,9.75,AU,1702157267
149,sisimiut,66.9395,-53.6735,-6.33,80,100,2.84,GL,1702157497
150,queenstown,-31.8976,26.8753,11.24,93,100,2.39,ZA,1702157498
151,turpan,42.9333,89.1667,1.97,61,100,1.05,CN,1702157498
152,jatai,-17.8814,-51.7144,29.44,43,50,1.57,BR,1702157498
153,cheremushki,52.8356,91.3944,-26.01,98,48,1.23,RU,1702157499
154,siniscola,40.5719,9.6922,12.75,84,98,3.64,IT,1702157499
155,puerto lempira,15.2667,-83.7667,29.08,84,40,0.0,HN,1702157500
156,loralai,30.3705,68.598,7.34,28,85,2.45,PK,1702157500
157,port alfred,-33.5906,26.891,13.99,96,100,0.45,ZA,1702157501
158,wailua homesteads,22.0669,-159.378,26.24,74,0,2.57,US,1702157501
159,tsumeb,-19.2333,17.7167,27.01,22,52,5.5,NA,1702157501
160,ribeira grande,38.5167,-28.7,19.32,88,75,8.49,PT,1702157502
161,taoudenni,22.6783,-3.9836,21.68,26,15,5.03,ML,1702157502
162,suining,30.508,105.5733,14.9,70,100,1.74,CN,1702157502
163,marka,1.7159,44.7717,26.51,76,10,5.9,SO,1702157503
164,bull savanna,17.8868,-77.5902,26.75,77,28,4.39,JM,1702157503
165,zheleznodorozhnyy,55.7503,38.0042,-13.69,94,100,4.44,RU,1702157504
166,calchaqui,-29.8877,-60.287,22.14,70,93,3.52,AR,1702157504
167,bulungu,-4.55,18.6,20.4,98,100,0.7,CD,1702157505
168,fortuna,40.5982,-124.1573,14.4,59,0,0.45,US,1702157505
169,ulsteinvik,62.3432,5.8487,2.07,67,64,1.34,NO,1702157279
170,shimoda,34.6667,138.95,12.71,69,19,2.05,JP,1702157506
171,kaiapoi,-43.3783,172.6401,11.5,87,75,6.17,NZ,1702157506
172,puerto armuelles,8.2833,-82.8667,31.99,81,50,2.24,PA,1702157507
173,kapa'a,22.0752,-159.319,26.99,74,0,2.57,US,1702157507
174,progreso,21.2833,-89.6667,30.62,82,59,5.08,MX,1702157507
175,ak-suu,42.4995,78.527,-6.52,68,97,3.11,KG,1702157508
176,codrington,-38.2667,141.9667,15.41,56,54,7.09,AU,1702157508
177,sabzevar,36.2126,57.6819,9.57,40,100,1.9,IR,1702157509
178,mayqayyng,51.4625,75.7986,-24.45,82,20,1.41,KZ,1702157509
179,el zulia,7.9325,-72.6012,33.73,43,20,9.26,CO,1702157510
180,konarka,19.9,86.1167,19.22,65,15,2.79,IN,1702157510
181,morehead city,34.7229,-76.726,23.0,82,20,3.09,US,1702157510
182,bubaque,11.2833,-15.8333,28.31,67,99,6.48,GW,1702157511
183,abatskoye,56.2875,70.4555,-27.1,100,98,2.19,RU,1702157511
184,zykovo,55.9519,93.1461,-32.99,100,39,1.29,RU,1702157512
185,luanda,-8.8368,13.2343,27.0,77,75,1.54,AO,1702157512
186,tandag,9.0783,126.1986,25.71,84,51,0.72,PH,1702157512
187,ciudad lazaro cardenas,17.9583,-102.2,28.77,63,5,3.26,MX,1702157273
188,howrah,22.5892,88.3103,19.0,88,20,0.0,IN,1702157513
189,kamaishi,39.2667,141.8833,11.84,85,63,2.6,JP,1702157513
190,dudinka,69.4058,86.1778,-31.85,96,98,1.34,RU,1702157514
191,puerto ayora,-0.7393,-90.3518,30.98,92,42,2.24,EC,1702157514
192,palmer,42.1584,-72.3287,10.75,69,75,0.45,US,1702157515
193,aden,12.7794,45.0367,26.05,61,0,7.69,YE,1702157515
194,khash,28.2211,61.2158,10.1,32,100,1.21,IR,1702157515
195,kalmunai,7.4167,81.8167,25.44,88,98,1.98,LK,1702157516
196,callao,-12.0667,-77.15,21.16,73,40,5.66,PE,1702157516
197,bikenibeu village,1.3673,173.1241,29.98,74,40,2.06,KI,1702157516
198,siewierz,50.4666,19.2303,-0.85,95,75,3.6,PL,1702157517
199,atafu village,-8.5421,-172.5159,28.93,75,100,4.26,TK,1702157517
200,kasongo-lunda,-6.4667,16.8167,20.5,99,100,0.85,CD,1702157349
201,kavaratti,10.5669,72.642,28.47,76,15,3.5,IN,1702157518
202,dapchi,12.4904,11.4944,21.66,15,100,3.14,NG,1702157518
203,natal,-5.795,-35.2094,27.36,74,20,6.17,BR,1702157256
204,itanhaem,-24.1831,-46.7889,21.85,87,100,3.74,BR,1702157519
205,smithers,54.7804,-127.1743,-2.82,93,100,3.09,CA,1702157417
206,lebu,-37.6167,-73.65,14.17,72,0,9.76,CL,1702157506
207,port hedland,-20.3167,118.5667,27.03,61,33,5.66,AU,1702157520
208,malabar,-33.9667,151.25,22.62,85,75,7.72,AU,1702157521
209,yorkton,51.2167,-102.4677,-1.09,74,100,5.14,CA,1702157521
210,tutoia,-2.7619,-42.2744,27.15,82,50,5.05,BR,1702157521
211,tazovsky,67.4667,78.7,-38.03,100,66,1.57,RU,1702157522
212,newport,51.5877,-2.9984,10.69,76,6,12.28,GB,1702157489
213,bonthe,7.5264,-12.505,26.9,84,36,2.97,SL,1702157523
214,jiwani,25.05,61.7417,23.7,48,1,2.17,PK,1702157523
215,mandal,25.45,74.5667,16.17,41,2,2.02,IN,1702157524
216,tenabo,20.05,-90.2333,31.0,57,89,1.61,MX,1702157524
217,kenora,49.8167,-94.4337,-7.46,86,100,6.71,CA,1702157313
218,arawa,-6.2132,155.5367,29.42,69,94,0.69,PG,1702157525
219,kerikeri,-35.2268,173.9474,20.51,82,100,0.89,NZ,1702157525
220,sona,45.4388,10.8255,4.62,98,75,1.54,IT,1702157526
221,badger,64.8,-147.5333,-23.69,76,0,2.57,US,1702157278
222,vila velha,-20.3297,-40.2925,23.3,97,75,5.81,BR,1702157526
223,tolanaro,-25.0319,46.9987,24.04,88,75,6.17,MG,1702157527
224,ust-nera,64.5667,143.2,-18.42,98,91,1.8,RU,1702157527
225,jamestown,42.097,-79.2353,13.34,71,100,4.63,US,1702157513
226,nemuro,43.3236,145.575,4.61,63,96,4.23,JP,1702157528
227,aasiaat,68.7098,-52.8699,-11.15,81,100,1.9,GL,1702157528
228,hasaki,35.7333,140.8333,5.22,62,1,2.56,JP,1702157529
229,bambanglipuro,-7.95,110.2833,26.64,77,100,1.72,ID,1702157529
230,san carlos de bariloche,-41.1456,-71.3082,17.86,32,20,11.32,AR,1702157428
231,port elizabeth,-33.918,25.5701,15.05,85,100,1.74,ZA,1702157530
232,carlinville,39.2798,-89.8818,10.92,52,23,6.92,US,1702157530
233,el bayadh,33.6832,1.0193,5.44,79,38,3.13,DZ,1702157531
234,weiser,44.251,-116.9693,4.62,68,83,0.45,US,1702157531
235,bereznik,62.8551,42.7072,-19.95,85,16,3.59,RU,1702157531
236,bredasdorp,-34.5322,20.0403,15.84,82,21,2.57,ZA,1702157532
237,thinadhoo,0.5333,72.9333,27.42,77,100,2.18,MV,1702157532
238,rundu,-17.9333,19.7667,24.49,58,90,2.78,NA,1702157533
239,la passe,45.5549,-0.8967,12.77,86,80,6.08,FR,1702157533
240,ville platte,30.688,-92.2715,27.06,74,85,3.29,US,1702157534
241,kruisfontein,-34.0033,24.7314,13.82,87,100,1.08,ZA,1702157534
242,kangding,30.0513,101.9603,5.26,69,0,2.83,CN,1702157535
243,paragould,36.0584,-90.4973,15.94,73,97,2.24,US,1702157535
244,acarau,-2.8856,-40.12,27.09,76,56,9.11,BR,1702157472
245,dwarka,22.2394,68.9678,22.26,45,0,3.45,IN,1702157536
246,st. john's,47.5649,-52.7093,2.1,89,100,11.83,CA,1702157404
247,invercargill,-46.4,168.35,12.07,59,34,6.76,NZ,1702157537
248,happy valley-goose bay,53.3168,-60.3315,-5.83,58,20,3.6,CA,1702157537
249,pemangkat,1.1667,108.9667,26.58,82,100,1.18,ID,1702157538
250,west island,-12.1568,96.8225,25.99,83,40,6.69,CC,1702157538
251,vilyuysk,63.7553,121.6247,-25.94,97,100,2.95,RU,1702157538
252,gajendragarh,15.7333,75.9833,21.88,76,69,3.98,IN,1702157539
253,nguigmi,14.2495,13.1092,22.13,24,100,4.64,NE,1702157539
254,kunming,25.0389,102.7183,8.96,66,0,6.0,CN,1702157540
255,port augusta,-32.5,137.7667,16.9,86,100,8.55,AU,1702157540
256,lincheng,19.9078,109.6858,21.46,89,51,2.84,CN,1702157541
257,lompoc,34.6391,-120.4579,23.3,33,0,3.09,US,1702157541
258,college,64.8569,-147.8028,-23.64,74,20,2.57,US,1702157542
259,machecoul,46.9936,-1.8235,12.99,83,4,7.48,FR,1702157542
260,kudahuvadhoo,2.6708,72.8944,28.4,74,100,4.69,MV,1702157542
261,howard springs,-12.497,131.047,24.95,99,100,1.09,AU,1702157543
262,el maamoura,36.465,10.8061,14.14,75,47,4.8,TN,1702157543
263,malango,-2.9627,119.9001,18.97,95,91,1.29,ID,1702157544
264,island harbour,50.724,-1.2758,11.2,80,5,4.02,GB,1702157545
265,dehdasht,30.7949,50.5646,15.53,41,64,1.16,IR,1702157545
266,souillac,-20.5167,57.5167,25.21,94,75,0.0,MU,1702157546
267,puerto san jose,13.9256,-90.8244,29.33,68,37,3.55,GT,1702157546
268,praia da vitoria,38.7333,-27.0667,19.14,88,40,8.08,PT,1702157546
269,vuktyl,63.8567,57.3094,-27.16,100,100,0.45,RU,1702157547
270,weno,7.4515,151.8468,26.97,94,75,3.09,FM,1702157547
271,puerto baquerizo moreno,-0.9,-89.6,27.55,74,20,7.2,EC,1702157548
272,aksu,41.1231,80.2644,-0.22,49,82,1.99,CN,1702157548
273,peskovka,59.0448,52.3606,-33.49,100,37,0.61,RU,1702157549
274,abu jibeha,11.4562,31.2285,24.39,21,3,2.93,SD,1702157549
275,jiehu,35.5428,118.455,3.45,58,32,7.47,CN,1702157549
276,thayetmyo,19.3167,95.1833,21.21,95,0,1.66,MM,1702157550
277,yuzhno-kurilsk,44.0306,145.8556,3.54,75,78,5.7,RU,1702157550
278,obo,5.3998,26.4869,22.88,47,53,0.9,CF,1702157550
279,sydney,-33.8679,151.2073,21.69,92,75,7.72,AU,1702157328
280,ketchikan,55.3422,-131.6461,5.99,87,100,9.77,US,1702157551
281,caleta de carquin,-11.0925,-77.6267,21.07,81,85,4.31,PE,1702157552
282,port-vila,-17.7338,168.3219,24.78,78,40,4.12,VU,1702157552
283,san antonio de pale,-1.4014,5.6325,27.42,80,71,5.36,GQ,1702157552
284,constantia,44.1833,28.65,-0.62,84,100,5.57,RO,1702157468
285,novaya igirma,57.1334,103.9112,-32.8,99,93,1.0,RU,1702157553
286,mhamid,29.82,-5.72,18.46,28,8,2.88,MA,1702157554
287,kaliua,-5.0606,31.7936,18.94,96,96,0.77,TZ,1702157554
288,egilsstadir,65.2653,-14.3948,-4.05,93,75,1.03,IS,1702157555
289,miquelon,47.0975,-56.3814,4.0,83,3,8.57,PM,1702157555
290,ujae,8.9322,165.7642,28.05,75,83,6.94,MH,1702157556
291,laojunmiao,39.8333,97.7333,-2.76,46,100,0.54,CN,1702157556
292,vadso,70.0744,29.7487,-11.91,85,100,9.77,NO,1702157556
293,cabugao,17.7931,120.4578,24.92,90,0,1.97,PH,1702157557
294,tateyama,34.9833,139.8667,13.93,53,8,2.74,JP,1702157557
295,sheridan,44.8333,-106.9173,2.79,47,0,3.09,US,1702157558
296,nova sintra,14.8667,-24.7167,22.3,74,8,7.15,CV,1702157558
297,cidreira,-30.1811,-50.2056,20.6,75,10,9.0,BR,1702157559
298,vorkuta,67.5,64.0,-22.24,99,100,2.27,RU,1702157559
299,greymouth,-42.4667,171.2,13.35,93,100,4.81,NZ,1702157329
300,oriximina,-1.7656,-55.8661,29.96,57,98,0.64,BR,1702157560
301,saint-joseph,-21.3667,55.6167,24.21,87,46,4.05,RE,1702157560
302,mount gambier,-37.8333,140.7667,14.82,58,87,5.97,AU,1702157458
303,deblin,51.5591,21.8483,0.43,68,98,2.86,PL,1702157561
304,jayapura,-2.5333,140.7,25.66,88,100,3.24,ID,1702157562
305,nizhneudinsk,54.9076,99.0276,-31.33,98,50,1.22,RU,1702157562
306,remire-montjoly,4.9167,-52.2667,29.02,74,20,2.57,GF,1702157563
307,gaoual,11.75,-13.2,26.07,23,100,0.98,GN,1702157563
308,mumford,5.2618,-0.759,27.03,87,6,3.3,GH,1702157563
309,larbaa,36.5647,3.1543,9.47,87,0,1.54,DZ,1702157564
310,guadalupe y calvo,26.1,-106.9667,16.46,22,0,2.41,MX,1702157564
311,boueni,-12.9025,45.0761,27.99,74,90,4.32,YT,1702157565
312,kati,12.7441,-8.0726,25.67,13,100,1.68,ML,1702157565
313,saint-pierre,-21.3393,55.4781,24.82,78,20,2.06,RE,1702157565
314,nola,40.922,14.5329,12.92,71,41,0.82,IT,1702157566
315,mili,6.0815,171.735,27.93,81,100,8.34,MH,1702157566
316,east london,-33.0153,27.9116,16.2,89,100,2.85,ZA,1702157567
317,petropavlovsk-kamchatsky,53.0452,158.6483,0.33,76,75,8.49,RU,1702157448
318,santa ana,33.7456,-117.8678,23.95,16,20,8.23,US,1702157401
319,las heras,-46.5419,-68.9359,20.35,27,46,4.91,AR,1702157446
320,walvis bay,-22.9575,14.5053,17.53,77,0,4.12,NA,1702157568
321,luwuk,-0.9516,122.7875,25.57,83,84,1.42,ID,1702157568
322,feodosiya,45.0333,35.3833,8.04,93,100,4.43,UA,1702157569
323,bardai,11.65,7.2333,19.81,14,100,3.26,NG,1702157570
324,holualoa,19.6228,-155.9522,26.42,66,0,3.6,US,1702157442
325,sucua,-2.4667,-78.1667,26.41,65,75,2.06,EC,1702157570
326,mitu,1.1983,-70.1733,25.63,95,93,0.29,CO,1702157571
327,chibougamau,49.9168,-74.3659,-2.21,86,100,4.12,CA,1702157571
328,mariel,22.9875,-82.7536,29.08,71,27,6.38,CU,1702157571
329,bani walid,31.7566,13.9942,14.42,81,37,8.04,LY,1702157572
330,new norfolk,-42.7826,147.0587,11.62,47,94,1.09,AU,1702157573
331,manokwari,-0.8667,134.0833,26.98,79,100,3.87,ID,1702157573
332,kalghatgi,15.1833,74.9667,22.06,73,42,2.67,IN,1702157475
333,wuyang,31.9925,116.2472,14.06,56,100,5.92,CN,1702157574
334,hatillo,18.4863,-66.8254,29.1,74,2,3.58,PR,1702157574
335,usogorsk,63.4106,48.6872,-27.96,100,37,1.42,RU,1702157575
336,lubao,14.9167,120.55,26.84,85,3,1.6,PH,1702157575
337,revda,56.801,59.9303,-30.47,100,26,1.42,RU,1702157575
338,jabor,5.921,169.6434,28.0,80,93,7.38,MH,1702157576
339,agat village,13.3886,144.6585,28.06,85,20,2.57,GU,1702157576
340,malvik,63.4333,10.6833,1.77,67,0,5.66,NO,1702157577
341,caluula,11.9661,50.7569,25.29,72,67,4.75,SO,1702157577
342,san pedro,14.35,121.0167,26.77,85,20,4.47,PH,1702157577
343,puerto penasco,31.3167,-113.5333,20.7,23,13,9.27,MX,1702157578
344,san juan del sur,11.2529,-85.8705,30.12,79,40,4.12,NI,1702157578
345,rotorua,-38.1387,176.2452,18.12,45,100,3.45,NZ,1702157578
346,zheshart,62.0731,49.5733,-28.6,100,10,0.86,RU,1702157579
347,vilhena,-12.7406,-60.1458,32.12,51,40,1.03,BR,1702157579
348,ishim,56.1128,69.4902,-26.59,100,98,2.24,RU,1702157580
349,hamilton,39.1834,-84.5333,15.99,92,100,5.66,US,1702157533
350,marsh harbour,26.5412,-77.0636,24.89,65,29,6.39,BS,1702157580
351,fort riley north,39.1108,-96.8139,8.45,34,0,7.72,US,1702157581
352,kayenta,36.7278,-110.2546,0.44,31,12,3.88,US,1702157581
353,tura,25.5198,90.2201,14.78,73,9,1.15,IN,1702157582
354,pandan,14.0453,124.1694,26.17,88,88,3.85,PH,1702157582
355,whangarei,-35.7317,174.3239,21.68,46,89,2.58,NZ,1702157583
356,bratslav,48.8226,28.9407,-4.4,96,100,2.17,UA,1702157583
357,ifrane,33.3333,-5.25,10.73,53,67,2.81,MA,1702157541
358,chulakkurgan,43.765,69.1814,-8.87,46,22,0.92,KZ,1702157584
359,adrar,20.5022,-10.0711,20.37,24,36,5.28,MR,1702157584
360,slyudyanka,51.6594,103.7061,-25.46,97,47,2.02,RU,1702157585
361,barysh,53.6553,47.1123,-15.52,95,100,4.17,RU,1702157586
362,simanggang,1.2472,111.4528,22.99,100,100,0.51,MY,1702157586
363,lillehammer,61.1146,10.4674,-2.09,98,100,1.43,NO,1702157586
364,zhezqazghan,47.7833,67.7667,-17.36,52,0,3.05,KZ,1702157587
365,yelizovo,53.1873,158.3805,1.08,75,75,5.0,RU,1702157587
366,altai,46.3722,96.2583,-15.33,76,100,0.91,MN,1702157588
367,poxoreo,-15.8372,-54.3892,26.78,74,100,0.4,BR,1702157588
368,pauini,-7.7136,-66.9764,26.09,94,98,1.11,BR,1702157588
369,panaba,21.2833,-88.2667,28.45,64,92,3.12,MX,1702157589
370,port moresby,-9.4431,147.1797,25.68,83,75,2.57,PG,1702157589
371,eyl,7.9803,49.8164,25.06,77,6,7.95,SO,1702157590
372,harlingen,26.1906,-97.6961,29.05,79,0,8.23,US,1702157564
373,humaita,-7.5061,-63.0208,28.42,74,77,1.62,BR,1702157590
374,shingu,33.7333,135.9833,10.94,77,0,2.29,JP,1702157591
375,papao,-17.75,-149.55,29.82,84,54,9.87,PF,1702157591
376,enewetak,11.3474,162.3373,27.34,81,44,7.36,MH,1702157592
377,kaspiysk,42.8816,47.6392,9.1,100,100,0.0,RU,1702157592
378,jose maria morelos,23.3952,-103.8984,18.51,26,0,1.68,MX,1702157593
379,yeppoon,-23.1333,150.7333,24.88,66,91,9.28,AU,1702157594
380,kargasok,59.0556,80.8572,-24.03,96,100,3.79,RU,1702157594
381,hoemul-li,41.4339,129.67,0.94,68,62,4.54,KP,1702157595
382,antofagasta,-23.65,-70.4,19.6,71,9,4.25,CL,1702156936
383,twin falls,42.3505,-114.6445,0.19,64,0,3.6,US,1702157596
384,marquette,46.5333,-87.6335,3.76,96,100,0.89,US,1702157435
385,axim,4.8699,-2.2405,26.98,85,13,3.39,GH,1702157596
386,mehnagar,25.8833,83.1167,15.1,33,0,3.1,IN,1702157597
387,menaka,15.9182,2.4022,24.39,13,74,3.7,ML,1702157597
388,hadibu,12.65,54.0333,24.54,78,90,4.85,YE,1702157598
389,lae,-6.7221,146.9847,26.37,68,91,1.69,PG,1702157598
390,chachapoyas,-6.2317,-77.869,17.12,82,82,1.82,PE,1702157598
391,ta`u,-14.2336,-169.5144,27.39,80,92,6.6,AS,1702157599
392,kirakira,-10.4544,161.9205,25.1,94,100,1.2,SB,1702157599
393,moussoro,13.6408,16.4901,22.34,15,100,3.49,TD,1702157600
394,hammerfest,70.6634,23.6821,-7.75,67,67,6.69,NO,1702157600
395,nizhniy kuranakh,58.8353,125.4869,-31.97,98,100,2.19,RU,1702157601
396,kure,34.2333,132.5667,11.53,75,0,2.02,JP,1702157601
397,mar del plata,-38.0023,-57.5575,21.08,63,100,6.69,AR,1702157313
398,tvoroyri,61.5556,-6.8111,6.87,76,100,12.47,FO,1702157602
399,upata,8.0086,-62.3989,27.88,56,68,3.26,VE,1702157311
400,puerto leguizamo,-0.1934,-74.7819,28.02,77,90,1.11,CO,1702157602
401,vangaindrano,-23.35,47.6,21.46,90,100,1.01,MG,1702157603
402,al mindak,20.1588,41.2834,13.78,36,2,2.33,SA,1702157603
403,shizuishan,39.2333,106.7694,1.39,31,100,1.2,CN,1702157604
404,nar'yan-mar,67.6713,53.087,-27.16,92,6,2.68,RU,1702157604
405,ghanzi,-21.5667,21.7833,23.7,52,99,3.52,BW,1702157604
406,qaqortoq,60.7167,-46.0333,-3.77,72,100,3.16,GL,1702157605
407,inderbor,48.55,51.7833,-6.72,59,100,7.49,KZ,1702157605
408,wenatchee,47.4235,-120.3103,3.96,88,100,2.06,US,1702157606
409,warrenton,-28.114,24.8475,19.22,49,77,0.96,ZA,1702157606
410,harstad,68.799,16.5293,-2.69,74,98,9.83,NO,1702157606
411,polovinnoye,54.7914,65.9864,-23.55,98,72,3.11,RU,1702157607
412,abu qurqas,27.9312,30.8384,15.48,45,53,1.64,EG,1702157607
413,alibag,18.6411,72.8792,26.04,67,4,2.55,IN,1702157608
414,saynshand,44.8824,110.1163,-19.65,79,38,3.57,MN,1702157608
415,catemaco,18.4167,-95.1167,24.31,86,99,1.27,MX,1702157608
416,nevada,39.2502,-116.7512,0.29,24,16,0.79,US,1702157609
417,las tablas,7.7667,-80.2833,31.21,99,51,6.67,PA,1702157609
418,aitape,-3.1374,142.3475,26.53,90,100,3.79,PG,1702157610
419,mary,37.0,62.5,7.91,56,100,5.19,TM,1702157610
420,uravakonda,14.95,77.2667,22.94,76,96,4.52,IN,1702157611
421,kuhmo,64.1333,29.5167,-12.19,93,100,3.68,FI,1702157611
422,orkney,-26.9802,26.6727,24.63,26,100,1.05,ZA,1702157611
423,carnarvon,-24.8667,113.6333,26.29,28,0,12.7,AU,1702157612
424,raj-nandgaon,21.1,81.0333,17.14,65,3,2.54,IN,1702157612
425,salekhard,66.53,66.6019,-23.31,100,100,1.05,RU,1702157612
426,takoradi,4.8845,-1.7554,27.06,86,14,2.87,GH,1702157613
427,bandon,51.7469,-8.7425,7.77,90,30,4.85,IE,1702157613
428,tianpeng,30.9866,103.9393,12.34,62,98,1.54,CN,1702157614
429,penzance,50.1186,-5.5371,11.38,81,2,11.81,GB,1702157614
430,sao vicente,-23.9631,-46.3919,24.1,70,100,1.54,BR,1702157614
431,leava,-14.3,-178.1667,27.8,76,79,2.47,WF,1702157615
432,vila do maio,15.1333,-23.2167,25.44,73,0,5.65,CV,1702157615
433,loango,-4.6719,11.8312,26.32,80,100,1.57,CG,1702157616
434,susuman,62.7833,148.1667,-16.68,97,100,0.89,RU,1702157616
435,porto velho,-8.7619,-63.9039,24.03,94,75,1.03,BR,1702157466
436,port douglas,-16.4833,145.4667,26.24,66,8,2.98,AU,1702157617
437,narail,23.1667,89.5,17.92,65,0,2.02,BD,1702157617
438,abepura,-2.6333,140.5833,26.45,89,20,2.06,ID,1702157618
439,mount pearl,47.5166,-52.7813,1.64,89,100,11.83,CA,1702157618
440,gulf shores,30.246,-87.7008,24.69,75,20,4.12,US,1702157458
441,cabedelo,-6.9811,-34.8339,27.37,73,68,7.2,BR,1702157619
442,puerto el triunfo,13.2833,-88.55,29.19,63,53,1.98,SV,1702157619
443,al ghayzah,16.2079,52.176,23.6,64,7,1.72,YE,1702157620
444,lamu,-2.2717,40.902,27.12,84,21,4.96,KE,1702157621
445,katsuura,35.1333,140.3,12.97,53,14,1.67,JP,1702157621
446,villavicencio,4.142,-73.6266,26.01,90,76,1.27,CO,1702157441
447,ilabaya,-17.4208,-70.5133,23.37,52,99,1.66,PE,1702157622
448,ola,59.5833,151.2833,-3.25,86,100,6.2,RU,1702157622
449,dakhla,23.6848,-15.958,20.01,88,92,7.2,EH,1702157623
450,salina,38.8403,-97.6114,9.07,33,0,10.8,US,1702157440
451,quellon,-43.1167,-73.6167,13.15,73,100,3.39,CL,1702157624
452,ozery,54.86,38.5506,-10.78,94,100,6.26,RU,1702157624
453,ponca city,36.707,-97.0856,10.98,35,0,7.2,US,1702157509
454,bodo,67.28,14.405,-1.98,59,0,9.77,NO,1702157368
455,burang,30.25,81.1667,-14.9,58,6,1.6,CN,1702157625
456,lepsy,46.235,78.9456,-8.08,57,96,2.48,KZ,1702157625
457,khandyga,62.6667,135.6,-32.22,99,100,0.78,RU,1702157626
458,springbok,-29.6643,17.8865,12.11,62,2,1.93,ZA,1702157626
459,lanivtsi,49.8633,26.0908,-3.3,93,98,4.65,UA,1702157627
460,kingori,-3.2833,36.9833,19.04,87,85,1.21,TZ,1702157627
461,laguna,38.421,-121.4238,15.72,62,0,1.54,US,1702157627
462,singarayakonda,15.25,80.0333,23.83,86,77,0.89,IN,1702157628
463,birjand,32.8663,59.2211,5.26,36,0,2.06,IR,1702157628
464,djibo,14.1022,-1.6306,25.13,13,47,3.49,BF,1702157630
465,cradock,-32.1642,25.6192,11.81,82,100,3.24,ZA,1702157630
466,tual,-5.6667,132.75,27.1,83,100,7.7,ID,1702157630
467,goderich,43.7501,-81.7165,14.18,82,88,9.26,CA,1702157399
468,ust'-ilimsk,58.0006,102.6619,-28.64,99,99,1.48,RU,1702157631
469,childress,34.4264,-100.204,9.14,31,75,9.26,US,1702157551
470,marumori,37.9167,140.7667,9.77,84,17,2.5,JP,1702157632
471,namibe,-15.1961,12.1522,23.72,78,99,0.99,AO,1702157632
472,lotoshino,56.2267,35.6414,-9.68,94,100,4.73,RU,1702157633
473,inari,68.906,27.0288,-14.89,91,88,4.25,FI,1702157633
474,la huaca,-4.9117,-80.96,26.4,57,22,7.11,PE,1702157633
475,prince rupert,54.3161,-130.3201,8.05,65,100,13.89,CA,1702157634
476,sangju,36.4153,128.1606,4.77,93,7,0.45,KR,1702157402
477,urzhar,47.093,81.6294,-10.71,42,84,1.06,KZ,1702157635
478,gore,-46.1028,168.9436,13.12,48,25,5.13,NZ,1702157635
479,carnot,4.9409,15.8665,23.43,53,32,0.23,CF,1702157636
480,illapel,-31.6308,-71.1653,29.23,29,0,3.51,CL,1702157172
481,yamethin,20.4333,96.15,20.59,93,17,1.09,MM,1702157636
482,arteche,12.2645,125.4048,25.78,85,98,2.8,PH,1702157637
483,oltinko'l,40.8011,72.1634,3.35,75,38,1.08,UZ,1702157637
484,langon,44.5,-0.3333,13.13,93,49,3.18,FR,1702157637
485,quezon,7.7303,125.0989,22.0,93,18,1.33,PH,1702157638
486,khorixas,-20.3667,14.9667,22.66,29,0,4.34,NA,1702157638
487,wynyard,-41.0,145.7167,13.78,64,100,3.75,AU,1702157638
488,colonia,50.9333,6.95,11.05,81,75,3.6,DE,1702157458
489,la mira,18.035,-102.3266,28.8,64,8,2.69,MX,1702157639
490,mildura,-34.2,142.15,21.61,53,97,9.48,AU,1702157459
491,mount isa,-20.7333,139.5,27.87,65,1,0.0,AU,1702157640
492,arno,60.1167,18.6333,-2.34,92,100,5.75,SE,1702157640
493,alghero,40.5589,8.3181,13.05,88,40,2.57,IT,1702157641
494,arraial do cabo,-22.9661,-42.0278,23.98,69,75,4.63,BR,1702157641
495,changyon,38.2508,125.0961,1.64,55,46,3.44,KP,1702157641
496,mukalla,14.5425,49.1242,23.36,67,32,2.56,YE,1702157642
497,libreville,0.3925,9.4537,28.01,83,20,2.57,GA,1702157642
498,argo,37.6333,22.7333,7.1,77,11,1.11,GR,1702157642
499,nagqu,31.5,92.0,-10.27,50,3,0.36,CN,1702157643
500,tarija,-21.5355,-64.7296,27.95,44,75,4.12,BO,1702157643
501,banda aceh,5.5577,95.3222,26.2,83,99,1.92,ID,1702157644
502,xinqing,48.2333,129.5,-25.31,87,9,3.63,CN,1702157644
503,newman,37.3138,-121.0208,14.6,44,13,2.68,US,1702157644
504,esfarayen,37.0765,57.5101,5.81,44,100,2.69,IR,1702157645
505,pitimbu,-7.4706,-34.8086,27.33,72,89,6.8,BR,1702157645
506,altinekin,38.3078,32.8686,2.31,91,25,2.02,TR,1702157645
507,strugi-krasnyye,58.2675,29.1114,-8.99,93,100,3.96,RU,1702157646
508,san sebastian de la gomera,28.0916,-17.1133,23.42,73,0,0.0,ES,1702157646
509,lata,40.1629,-8.3327,17.12,95,100,1.45,PT,1702157646
510,berezovyy,51.6667,135.7,-15.8,79,100,2.39,RU,1702157647
511,punta del este,-34.9667,-54.95,22.2,72,75,8.49,UY,1702157402
512,labrador city,52.9463,-66.9114,-11.05,73,75,1.54,CA,1702157415
513,dean funes,-30.4204,-64.3498,22.77,60,84,5.32,AR,1702157648
514,nevel'sk,46.6733,141.8633,-6.58,64,100,9.81,RU,1702157649
515,kaohsiung,22.6163,120.3133,23.91,77,40,1.54,TW,1702157649
516,koungou,-12.7336,45.2042,27.84,83,75,5.66,YT,1702157650
517,mogocha,53.7333,119.7667,-33.13,93,19,1.61,RU,1702157650
518,pisco,-13.7,-76.2167,21.03,73,31,10.8,PE,1702157651
519,aldan,58.6031,125.3894,-34.15,98,100,1.78,RU,1702157651
520,tamanrasset,22.785,5.5228,14.95,25,0,3.09,DZ,1702157651
521,rongelap,11.1635,166.8941,27.54,78,60,8.72,MH,1702157652
522,naryn,41.4287,75.9911,-7.62,94,89,0.99,KG,1702157652
523,fernley,39.608,-119.2518,8.36,28,33,2.24,US,1702157594
524,nagamangala,12.8156,76.7575,20.98,91,81,2.69,IN,1702157654
525,bayan,46.0833,127.4,-28.31,95,5,2.47,CN,1702157654
526,gillette,44.2911,-105.5022,1.17,61,0,4.63,US,1702157618
527,oyama,36.3,139.8,10.88,50,0,1.0,JP,1702157655
528,falmouth,50.1544,-5.0711,11.32,76,20,6.69,GB,1702157653
529,ampanihy,-24.7,44.75,22.8,75,1,2.75,MG,1702157655
530,luorong,24.4058,109.6086,19.85,92,75,0.35,CN,1702157656
531,tyre,33.2733,35.1939,15.11,69,68,1.42,LB,1702157656
532,camacupa,-12.0167,17.4833,16.95,95,100,0.99,AO,1702157656
533,floreffe,50.4347,4.7585,10.26,80,96,10.4,BE,1702157657
534,natchez,31.5604,-91.4032,26.12,65,40,4.12,US,1702157657
535,lorengau,-2.0226,147.2712,28.82,79,100,6.11,PG,1702157658
536,selfoss,63.9331,-20.9971,-5.53,64,16,3.04,IS,1702157658
537,hun,29.1268,15.9477,15.04,51,100,5.47,LY,1702157658
538,taradale,-39.5333,176.85,20.01,56,100,4.02,NZ,1702157659
539,hibbing,47.4272,-92.9377,-2.22,64,100,9.77,US,1702157606
540,flin flon,54.7682,-101.865,-5.09,74,75,2.06,CA,1702157659
541,yeniseysk,58.4497,92.1703,-31.7,99,74,0.89,RU,1702157660
542,fuling,29.7022,107.3919,16.08,78,98,0.63,CN,1702157660
543,kristiansund,63.1115,7.732,0.36,59,14,1.54,NO,1702157661
544,lubang,13.8584,120.124,27.46,80,50,9.0,PH,1702157661
545,monmouth,40.3001,-74.1663,12.88,73,82,1.11,US,1702157661
546,tofol,5.3248,163.0078,28.05,79,57,7.29,FM,1702157662
547,tomatlan,19.9333,-105.25,32.39,41,0,2.65,MX,1702157662
548,xindi,29.8167,113.4667,17.1,77,96,3.88,CN,1702157663
549,leirvik,59.7798,5.5005,4.36,64,100,5.94,NO,1702157663
550,arys,42.4252,68.795,-3.4,49,58,2.4,KZ,1702157663
551,pak chong,14.708,101.4161,24.34,85,2,0.86,TH,1702157664
552,bismarck,46.8083,-100.7837,-1.09,76,0,7.2,US,1702157664
553,plouguerneau,48.6,-4.5,11.89,82,0,5.66,FR,1702157664
554,owando,-0.4819,15.8999,22.23,97,73,1.03,CG,1702157665
555,cassilandia,-19.1133,-51.7342,34.76,33,84,2.68,BR,1702157367
556,malindi,-3.2175,40.1191,26.21,85,22,4.0,KE,1702157665
557,villa ojo de agua,-29.5,-63.6938,25.01,54,38,5.85,AR,1702157666
558,armacao de buzios,-22.7469,-41.8817,25.03,78,100,4.54,BR,1702157606
559,masterton,-40.9597,175.6575,14.38,80,100,5.27,NZ,1702157666
560,karachi,24.9056,67.0822,15.9,88,0,0.0,PK,1702157667
561,ivins,37.1686,-113.6794,10.64,21,35,0.78,US,1702157667
562,sinabang,2.4803,96.3801,26.22,84,100,1.22,ID,1702157668
563,ebon,4.582,168.6964,28.06,78,40,4.46,MH,1702157668
564,yarovoye,52.9273,78.58,-21.93,89,95,1.43,RU,1702157668
565,el paso,31.8001,-106.2005,10.81,12,0,10.29,US,1702157432
566,nadi,-17.8,177.4167,29.0,58,40,4.63,FJ,1702157669
567,palikir - national government center,6.9248,158.1611,28.41,74,75,2.06,FM,1702157669
568,greenland,43.0362,-70.8328,9.49,86,75,3.09,US,1702157670
569,siwa oasis,29.2041,25.5195,15.6,43,100,1.83,EG,1702157670
570,princeville,45.7668,-61.2985,1.86,90,100,4.12,CA,1702157671
571,lagos,6.5833,3.75,28.18,84,1,2.22,NG,1702157294
572,denbigh,53.1833,-3.4167,9.86,78,98,4.92,GB,1702157672
573,novouzensk,50.4592,48.1431,-8.0,63,100,7.48,RU,1702157672
574,panjab,34.388,67.0233,-4.63,58,1,1.32,AF,1702157673
575,coihueco,-36.6167,-71.8333,26.71,18,0,4.37,CL,1702157673
576,barcelos,41.5388,-8.6151,17.18,99,100,2.51,PT,1702157669
577,gretna,29.9147,-90.054,27.21,66,40,7.2,US,1702157674
578,andovoranto,-18.95,49.1,24.14,92,54,1.7,MG,1702157674
579,punta arenas,-53.15,-70.9167,14.06,51,75,9.77,CL,1702157422
580,ziro,27.6333,93.8333,4.76,96,42,1.21,IN,1702157675
581,vernon,50.2581,-119.2691,2.01,86,100,3.6,CA,1702157675
