City_ID,City,Lat,Lng,Max Temp,Humidity,Cloudiness,Wind Speed,Country,Date
0,port elizabeth,-33.918,25.5701,21.17,69,26,3.58,ZA,1702220932
1,hawaiian paradise park,19.5933,-154.9731,22.8,98,100,2.06,US,1702220918
2,cafarnaum,-11.6936,-41.4683,33.11,28,0,4.12,BR,1702221259
3,queenstown,-31.8976,26.8753,11.8,86,100,3.91,ZA,1702221259
4,port-aux-francais,-49.35,70.2167,3.2,74,33,11.88,TF,1702220896
5,blackmans bay,-43.0167,147.3167,10.29,88,100,1.78,AU,1702220915
6,colonia,50.9333,6.95,11.65,69,0,7.72,DE,1702220754
7,adamstown,-25.066,-130.1015,21.16,64,95,5.39,PN,1702220922
8,khorixas,-20.3667,14.9667,29.78,16,2,8.01,NA,1702221261
9,covington,39.0837,-84.5086,4.02,78,100,3.6,US,1702220865
10,nakhon thai,17.1006,100.8374,24.2,90,41,0.7,TH,1702221262
11,ribeira grande,38.5167,-28.7,18.76,77,75,9.77,PT,1702220899
12,papatowai,-46.5619,169.4708,6.58,84,50,3.65,NZ,1702220930
13,yellowknife,62.456,-114.3525,-10.33,100,100,4.47,CA,1702220889
14,fort st. john,56.2499,-120.8529,-3.68,82,100,2.76,CA,1702221059
15,obo,5.3998,26.4869,32.21,33,13,1.37,CF,1702221264
16,san borja,-14.8167,-66.85,33.38,50,12,2.16,BO,1702221264
17,tiksi,71.6872,128.8694,-25.26,100,100,1.33,RU,1702220786
18,hermanus,-34.4187,19.2345,23.14,51,0,9.17,ZA,1702220898
19,tailai,46.3833,123.4,-18.46,80,6,1.36,CN,1702221265
20,iqaluit,63.7506,-68.5145,-4.15,80,100,4.12,CA,1702220894
21,yunguyo,-16.25,-69.0833,12.3,60,13,4.05,PE,1702221266
22,bandiagara,14.3501,-3.6104,33.71,7,37,4.88,ML,1702221266
23,madalena,41.2162,-8.3345,16.53,96,99,3.2,PT,1702221267
24,badger,64.8,-147.5333,-21.77,63,75,0.0,US,1702220912
25,hithadhoo,-0.6,73.0833,28.3,73,79,0.16,MV,1702220906
26,grytviken,-54.2811,-36.5092,6.72,85,100,4.91,GS,1702220908
27,bethel,41.3712,-73.414,12.58,89,100,2.06,US,1702220693
28,coronel suarez,-37.4547,-61.9334,28.96,18,0,1.84,AR,1702221268
29,ko pha ngan,9.7578,100.0291,25.38,74,81,2.78,TH,1702221269
30,fale old settlement,-9.3852,-171.2468,26.9,86,100,9.46,TK,1702220908
31,san patricio,28.017,-97.5169,12.14,30,0,6.79,US,1702221119
32,waitangi,-43.9535,-176.5597,9.34,61,21,5.81,NZ,1702220895
33,quellon,-43.1167,-73.6167,14.62,72,100,0.17,CL,1702221271
34,okhotsk,59.3833,143.3,-3.91,85,100,7.3,RU,1702221130
35,keflavik,64.0049,-22.5624,1.24,80,75,4.12,IS,1702221271
36,yuanping,38.7153,112.7575,-4.57,96,100,1.33,CN,1702221272
37,kapa'a,22.0752,-159.319,24.18,84,0,5.14,US,1702220890
38,albany,42.6001,-73.9662,13.38,83,100,1.34,US,1702220750
39,klyuchi,52.2667,79.1667,-20.29,84,14,2.05,RU,1702220893
40,kodiak,57.79,-152.4072,1.73,93,100,11.32,US,1702220965
41,port alfred,-33.5906,26.891,22.32,73,42,0.89,ZA,1702220977
42,llanes,43.4198,-4.7549,17.73,78,100,0.98,ES,1702221274
43,saint-pierre,-21.3393,55.4781,26.82,74,0,6.17,RE,1702221274
44,mansfield,53.1333,-1.2,10.0,95,100,7.16,GB,1702221275
45,thompson,55.7435,-97.8558,-25.56,100,18,0.82,CA,1702220904
46,faya-largeau,17.9257,19.1043,28.61,12,98,2.88,TD,1702221275
47,novaya igirma,57.1334,103.9112,-34.35,100,53,0.74,RU,1702221276
48,longyearbyen,78.2186,15.6401,-4.09,86,75,0.51,SJ,1702220982
49,west island,-12.1568,96.8225,25.99,78,40,6.69,CC,1702220963
50,urengoy,65.9667,78.3667,-39.63,100,55,2.12,RU,1702221025
51,margaret river,-33.95,115.0667,18.16,42,0,5.63,AU,1702220892
52,wailua homesteads,22.0669,-159.378,23.44,84,0,5.14,US,1702220980
53,isafjordur,66.0755,-23.124,-3.07,80,96,1.94,IS,1702220909
54,whitehorse,60.7161,-135.0538,-18.44,83,80,0.89,CA,1702220905
55,sitka,57.0531,-135.33,2.94,81,100,4.12,US,1702220954
56,laguna,38.421,-121.4238,9.49,95,20,0.0,US,1702221279
57,myitkyina,25.3833,97.4,17.47,89,0,0.96,MM,1702221235
58,edinburgh of the seven seas,-37.0676,-12.3116,13.12,69,100,5.8,SH,1702220899
59,kananga,-5.8958,22.4178,26.93,75,75,1.15,CD,1702221059
60,olonkinbyen,70.9221,-8.7187,-5.87,58,14,1.18,SJ,1702220891
61,mizdah,31.4451,12.9801,14.45,73,52,7.8,LY,1702221281
62,ushuaia,-54.8,-68.3,9.79,64,77,2.76,AR,1702220902
63,malpe,13.35,74.7167,25.61,84,74,0.74,IN,1702220916
64,saint croix,17.7397,-64.7388,29.25,77,20,7.72,VI,1702221282
65,lichuan,30.3,108.85,9.98,98,99,1.29,CN,1702221282
66,gaigeturi,33.4644,126.3183,16.03,88,100,5.66,KR,1702221283
67,i-n-salah,27.1935,2.4607,20.88,29,68,7.86,DZ,1702221283
68,sao vicente,-23.9631,-46.3919,30.15,47,68,5.36,BR,1702220993
69,petropavlovsk-kamchatsky,53.0452,158.6483,0.25,95,100,6.71,RU,1702220919
70,palikir - national government center,6.9248,158.1611,27.52,71,77,6.81,FM,1702220889
71,russkaya polyana,49.417,31.9201,0.73,98,100,3.08,UA,1702221285
72,aasiaat,68.7098,-52.8699,-6.33,94,100,6.56,GL,1702221285
73,bac lieu,9.285,105.7244,25.84,84,100,3.94,VN,1702221286
74,chonchi,-42.6128,-73.8092,16.56,61,83,0.5,CL,1702221286
75,tazacorte,28.629,-17.9293,24.53,80,0,2.06,ES,1702221287
76,inari,68.906,27.0288,-14.89,91,97,4.55,FI,1702221287
77,nemuro,43.3236,145.575,-0.75,57,21,8.93,JP,1702221007
78,lensk,60.7253,114.9278,-27.02,93,100,4.49,RU,1702221288
79,colchani,-20.3,-66.9333,18.33,31,23,2.85,BO,1702221288
80,bilibino,68.0546,166.4372,-26.03,100,86,1.81,RU,1702220950
81,puerto natales,-51.7236,-72.4875,12.25,50,75,3.6,CL,1702220894
82,atafu village,-8.5421,-172.5159,28.44,79,100,7.28,TK,1702221057
83,tromso,69.6496,18.957,-2.99,59,0,10.29,NO,1702221289
84,san luis de la loma,17.2706,-100.8939,27.54,53,100,1.71,MX,1702221290
85,tralee,52.2704,-9.7026,11.14,76,100,18.52,IE,1702221290
86,jamestown,42.097,-79.2353,4.75,96,100,2.06,US,1702220710
87,udachny,66.4167,112.4,-29.2,74,100,4.63,RU,1702220942
88,crane,31.3974,-102.3501,4.06,40,0,1.89,US,1702220957
89,qaqortoq,60.7167,-46.0333,-7.03,73,99,2.1,GL,1702220948
90,avarua,-21.2078,-159.775,25.03,88,75,9.77,CK,1702220918
91,puerto ayora,-0.7393,-90.3518,26.98,80,70,4.32,EC,1702220901
92,camocim,-2.9022,-40.8411,31.05,58,93,7.24,BR,1702221292
93,abaza,52.655,90.0928,-26.37,99,86,0.92,RU,1702221293
94,kadinhani,38.2397,32.2114,3.35,60,100,2.17,TR,1702221293
95,alesund,62.4723,6.1549,4.08,75,75,4.12,NO,1702221293
96,sur,22.5667,59.5289,24.35,49,0,3.03,OM,1702221294
97,khandyga,62.6667,135.6,-33.58,99,100,1.32,RU,1702221091
98,yima,34.7381,111.8839,-1.91,97,100,3.33,CN,1702221294
99,gadzhiyevo,69.2551,33.3362,-10.72,83,100,8.81,RU,1702220957
100,wakkanai,45.4094,141.6739,-6.06,74,100,7.6,JP,1702221090
101,necochea,-38.5473,-58.7368,23.54,48,1,4.12,AR,1702221295
102,new norfolk,-42.7826,147.0587,10.95,81,100,1.44,AU,1702221068
103,kharan,28.5833,65.4167,15.77,21,2,0.7,PK,1702221296
104,sebastian,35.1668,-94.2669,2.33,49,0,2.89,US,1702221296
105,invercargill,-46.4,168.35,5.0,87,27,2.86,NZ,1702220904
106,muang phonsavan,19.45,103.2167,17.58,98,34,0.7,LA,1702221297
107,moyynkum,44.2914,72.9469,-7.14,52,100,4.25,KZ,1702221297
108,college,64.8569,-147.8028,-21.72,75,75,0.0,US,1702220990
109,dunedin,-45.8742,170.5036,8.78,72,72,1.17,NZ,1702220956
110,ventspils,57.3894,21.5606,-2.04,93,75,3.09,LV,1702221298
111,mejit,10.2753,170.8646,27.17,80,89,10.11,MH,1702221025
112,howard springs,-12.497,131.047,28.95,93,92,1.93,AU,1702220989
113,jieshi,22.8134,115.8257,21.84,87,99,3.37,CN,1702221299
114,auki,-8.7676,160.7034,25.28,88,100,0.32,SB,1702221300
115,lihue,21.9789,-159.3672,23.77,76,0,5.14,US,1702220905
116,cowra,-33.8333,148.6833,22.0,67,29,1.74,AU,1702221301
117,susuman,62.7833,148.1667,-13.34,93,100,0.45,RU,1702220977
118,kandyagash,49.4744,57.4233,-15.97,79,6,6.29,KZ,1702221301
119,evanston,42.0411,-87.6901,2.0,75,100,4.12,US,1702221302
120,kourou,5.1552,-52.6478,31.03,74,31,3.29,GF,1702220915
121,punta arenas,-53.15,-70.9167,11.06,40,20,13.89,CL,1702220928
122,east london,-33.0153,27.9116,19.03,71,99,1.36,ZA,1702221121
123,vorgashor,67.5833,63.95,-25.06,100,93,2.48,RU,1702221016
124,praia da vitoria,38.7333,-27.0667,18.2,91,100,6.58,PT,1702220969
125,usogorsk,63.4106,48.6872,-24.07,99,76,2.81,RU,1702221304
126,afaahiti,-17.75,-149.2833,24.93,84,87,10.74,PF,1702221027
127,saipan,15.1355,145.701,26.39,89,40,4.12,MP,1702220906
128,anadyr,64.75,177.4833,-23.72,76,20,6.0,RU,1702220930
129,manokwari,-0.8667,134.0833,26.54,83,88,4.74,ID,1702221081
130,greymouth,-42.4667,171.2,10.48,78,97,0.69,NZ,1702221306
131,duck lake,52.8168,-106.2344,-6.43,67,91,2.96,CA,1702221307
132,zouerate,22.7187,-12.4521,28.55,13,93,8.33,MR,1702220954
133,sola,-13.8833,167.55,26.43,79,100,8.89,VU,1702221307
134,nova sintra,14.8667,-24.7167,23.04,74,87,7.32,CV,1702221100
135,copala,16.65,-98.9833,27.18,59,100,0.87,MX,1702221308
136,veinticinco de mayo,-35.4323,-60.1727,28.32,50,0,1.34,AR,1702221308
137,bani mazar,28.5036,30.8004,19.35,27,7,1.29,EG,1702221309
138,midvagur,62.0511,-7.1939,7.46,76,75,6.69,FO,1702221044
139,al ghayzah,16.2079,52.176,25.43,57,6,4.64,YE,1702221310
140,tolanaro,-25.0319,46.9987,25.88,86,7,6.74,MG,1702220962
141,kingston,17.997,-76.7936,30.53,66,20,10.29,JM,1702220759
142,hotan,37.0997,79.9269,6.92,21,0,4.52,CN,1702221311
143,barguzin,53.6167,109.6167,-26.03,95,85,1.44,RU,1702221311
144,sirte,31.2089,16.5887,18.96,58,99,11.1,LY,1702221311
145,malango,-2.9627,119.9001,20.79,98,100,1.07,ID,1702221090
146,xining,36.6167,101.7667,-0.52,48,65,0.88,CN,1702221023
147,sisimiut,66.9395,-53.6735,-4.34,94,100,5.13,GL,1702221122
148,monrovia,6.3005,-10.7969,31.87,67,74,4.83,LR,1702221313
149,capinopolis,-18.6819,-49.5697,35.92,32,4,3.97,BR,1702221314
150,atar,20.5169,-13.0499,31.33,9,31,9.24,MR,1702221249
151,amga,60.8953,131.9608,-28.58,91,100,3.96,RU,1702221120
152,mount isa,-20.7333,139.5,28.87,39,99,7.72,AU,1702220923
153,san jose del cabo,23.0589,-109.6977,21.52,65,0,5.14,MX,1702221315
154,el porvenir,13.7617,-87.3458,24.63,53,1,2.36,HN,1702221316
155,hasaki,35.7333,140.8333,12.38,68,100,1.42,JP,1702221316
156,port mathurin,-19.6833,63.4167,26.71,71,43,3.98,MU,1702220893
157,oytal,42.9057,73.2697,-5.6,85,100,1.08,KZ,1702221317
158,sao joao da barra,-21.6403,-41.0511,26.05,74,100,4.33,BR,1702221010
159,santa terezinha,-29.9002,-50.0904,21.89,81,100,7.95,BR,1702221318
160,shingu,33.7333,135.9833,12.2,78,68,2.25,JP,1702221318
161,dudinka,69.4058,86.1778,-29.1,96,100,1.34,RU,1702221050
162,alliance,40.9153,-81.1059,4.06,82,100,4.68,US,1702221150
163,cidreira,-30.1811,-50.2056,21.3,82,100,8.9,BR,1702221319
164,aykhal,66.0,111.5,-28.41,99,100,1.86,RU,1702221174
165,pisco,-13.7,-76.2167,22.03,78,60,4.12,PE,1702221320
166,ikalamavony,-21.15,46.5833,26.93,54,67,4.04,MG,1702221320
167,qui nhon,13.7667,109.2333,23.46,83,51,1.7,VN,1702221321
168,tura,25.5198,90.2201,14.65,56,0,1.14,IN,1702220909
169,boende,-0.2167,20.8667,28.57,71,83,1.54,CD,1702221322
170,puerto gaitan,4.3133,-72.0816,30.38,60,85,5.11,CO,1702221322
171,coahuayana de hidalgo,18.7,-103.6583,26.67,55,100,1.07,MX,1702221323
172,georgetown,5.4112,100.3354,28.96,90,20,1.54,MY,1702220770
173,fort bragg,35.139,-79.006,21.57,88,100,4.63,US,1702221040
174,westport,41.1415,-73.3579,14.34,93,100,2.57,US,1702220925
175,port saint john's,-31.6229,29.5448,17.99,90,100,2.92,ZA,1702220941
176,saint-joseph,-21.3667,55.6167,26.21,85,93,6.02,RE,1702221325
177,revda,56.801,59.9303,-25.84,100,100,1.55,RU,1702220895
178,lamu,-2.2717,40.902,26.12,81,76,5.57,KE,1702221326
179,chimore,-16.9833,-65.1333,30.77,69,55,1.28,BO,1702221080
180,ilulissat,69.2167,-51.1,-3.99,74,100,6.69,GL,1702220896
181,kuala tungkal,-0.8167,103.4667,25.98,89,100,2.0,ID,1702221327
182,harstad,68.799,16.5293,-0.47,76,99,6.71,NO,1702221031
183,brisas de zicatela,15.8369,-97.0419,27.29,69,0,3.09,MX,1702221327
184,chibougamau,49.9168,-74.3659,2.79,87,100,4.12,CA,1702221102
185,nsanje,-16.92,35.262,37.28,25,85,1.7,MW,1702221015
186,broken hill,-31.95,141.4333,28.68,38,98,1.39,AU,1702220955
187,okha,53.5739,142.9478,-19.4,85,100,11.07,RU,1702220965
188,viedma,-40.8135,-62.9967,28.41,15,0,4.53,AR,1702220958
189,palmer,42.1584,-72.3287,12.91,85,75,0.0,US,1702221329
190,lata,40.1629,-8.3327,18.37,76,92,2.27,PT,1702220944
191,khovd,48.0056,91.6419,-16.29,88,9,1.23,MN,1702221330
192,kapuskasing,49.4169,-82.4331,-4.95,86,100,6.17,CA,1702220935
193,hadibu,12.65,54.0333,25.27,69,12,6.01,YE,1702221331
194,luganville,-15.5333,167.1667,25.22,82,100,5.23,VU,1702221332
195,scarborough,54.2797,-0.4044,6.76,92,100,4.92,GB,1702220910
196,sinabang,2.4803,96.3801,26.42,85,99,1.63,ID,1702221009
197,lethem,3.3803,-59.7968,33.66,42,27,4.24,GY,1702221333
198,idri,27.5,13.2667,19.09,42,100,8.11,LY,1702221333
199,urumqi,43.801,87.6005,-8.47,86,75,2.0,CN,1702221273
200,kununurra,-15.7667,128.7333,28.99,70,85,2.57,AU,1702220960
201,mili,6.0815,171.735,27.6,83,87,7.75,MH,1702221334
202,bredasdorp,-34.5322,20.0403,21.24,55,0,6.88,ZA,1702220917
203,cotonou,6.3654,2.4183,31.99,70,40,6.17,BJ,1702221335
204,el golaa,33.4849,9.0068,18.85,32,0,6.53,TN,1702221336
205,kyzyl-suu,42.3414,78.0056,-3.89,65,100,3.2,KG,1702221336
206,la passe,45.5549,-0.8967,14.45,91,100,9.27,FR,1702221057
207,mechernich,50.6,6.65,9.88,79,98,7.9,DE,1702221337
208,sandnessjoen,66.0217,12.6316,0.06,55,0,1.54,NO,1702220995
209,fortuna,40.5982,-124.1573,4.19,100,0,5.14,US,1702220926
210,mukalla,14.5425,49.1242,24.98,64,0,2.31,YE,1702221338
211,ust'-barguzin,53.45,108.9833,-22.91,99,96,2.92,RU,1702221338
212,isangel,-19.55,169.2667,22.81,75,100,4.22,VU,1702220938
213,gao,16.6362,1.637,30.65,9,52,6.16,ML,1702221339
214,colby,39.3958,-101.0524,-1.65,60,0,6.17,US,1702221340
215,shatki,55.1887,44.1249,-14.58,89,100,4.97,RU,1702221340
216,talnakh,69.4865,88.3972,-29.33,99,100,3.62,RU,1702220927
217,sokur,55.2093,83.319,-28.8,88,100,2.63,RU,1702221341
218,koror town,7.3426,134.4789,27.18,89,75,2.57,PW,1702221341
219,hayden,47.766,-116.7866,1.23,94,100,3.6,US,1702221101
220,mount pearl,47.5166,-52.7813,1.85,81,100,5.14,CA,1702221342
221,enewetak,11.3474,162.3373,27.59,74,73,8.68,MH,1702220924
222,san gabriel,34.0961,-118.1058,16.51,23,0,0.0,US,1702221044
223,coquimbo,-29.9533,-71.3436,15.85,88,100,2.06,CL,1702221269
224,reggane,26.7158,0.1714,22.2,21,8,7.09,DZ,1702221343
225,valley city,46.9233,-98.0032,-10.71,100,100,0.0,US,1702221344
226,thatta,24.7475,67.9235,22.76,48,0,4.3,PK,1702221344
227,ugoofaaru,5.6667,73.0,28.93,73,79,2.54,MV,1702221345
228,constantia,44.1833,28.65,0.38,82,98,4.38,RO,1702220849
229,mount pleasant,32.7941,-79.8626,23.43,89,20,5.66,US,1702221265
230,iskateley,67.6803,53.1512,-22.77,91,96,4.92,RU,1702221026
231,mar del plata,-38.0023,-57.5575,27.13,57,40,4.63,AR,1702220706
232,ancud,-41.8697,-73.8203,14.85,73,62,3.22,CL,1702220901
233,perugorria,-29.3413,-58.6106,27.16,48,0,6.22,AR,1702221347
234,corinto,37.9407,22.9573,11.61,61,89,1.72,GR,1702221347
235,grinnell,41.743,-92.7224,-3.01,85,100,5.66,US,1702221348
236,talara,-4.5772,-81.2719,28.42,57,0,9.77,PE,1702221111
237,yuzhno-sukhokumsk,44.6581,45.6436,1.15,100,100,3.82,RU,1702221348
238,ust-nera,64.5667,143.2,-15.61,98,100,3.12,RU,1702220935
239,valdivia,-39.8142,-73.2459,22.21,39,84,1.6,CL,1702221206
240,kermanshah,34.3142,47.065,11.5,30,0,0.0,IR,1702221350
241,sena madureira,-9.0656,-68.6569,33.96,50,75,1.74,BR,1702221350
242,zhangye,38.9342,100.4517,-0.51,36,100,1.95,CN,1702221350
243,belo jardim,-8.3356,-36.4242,31.11,34,29,5.12,BR,1702221351
244,saldanha,-33.0117,17.9442,19.38,70,21,7.83,ZA,1702220925
245,el fasher,13.6279,25.3494,29.67,11,12,2.58,SD,1702221351
246,cobija,-11.0267,-68.7692,33.1,62,40,5.14,BO,1702221352
247,vorkuta,67.5,64.0,-24.93,100,93,2.39,RU,1702221352
248,solnechnyy,50.7214,136.6319,-23.32,94,27,2.02,RU,1702221352
249,luleburgaz,41.4039,27.3592,7.46,84,100,1.37,TR,1702221353
250,nagqu,31.5,92.0,-8.49,46,0,0.71,CN,1702221134
251,port douglas,-16.4833,145.4667,24.81,82,29,3.36,AU,1702221353
252,hirara,24.8,125.2833,22.15,83,70,3.09,JP,1702221354
253,vilyuchinsk,52.9306,158.4028,1.07,99,100,6.38,RU,1702220960
254,maputo,-25.9653,32.5892,24.82,83,75,4.63,MZ,1702221355
255,st. john's,47.5649,-52.7093,2.31,81,100,4.63,CA,1702220622
256,dombarovskiy,50.7587,59.5386,-18.33,66,8,1.34,RU,1702221356
257,chernyshevsk,52.5243,117.0174,-33.93,100,6,0.53,RU,1702221356
258,hafar al-batin,28.4328,45.9708,23.32,27,0,2.06,SA,1702221356
259,todos santos,23.45,-110.2167,18.5,51,0,2.52,MX,1702221357
260,ahus,55.9167,14.2833,3.11,98,100,4.12,SE,1702221357
261,qashyr,53.0675,76.1036,-22.87,93,93,1.31,KZ,1702221357
262,nuuk,64.1835,-51.7216,-1.66,74,40,2.06,GL,1702221128
263,utrik,11.2278,169.8474,26.94,80,78,10.24,MH,1702220988
264,nagireddipalli,14.2667,79.1,24.32,81,85,1.85,IN,1702221358
265,keila,59.3036,24.4131,-6.88,71,100,2.57,EE,1702221359
266,zhezqazghan,47.7833,67.7667,-17.68,50,0,6.0,KZ,1702221359
267,scottburgh,-30.2867,30.7532,19.4,87,100,5.82,ZA,1702221359
268,rundu,-17.9333,19.7667,33.64,18,93,4.62,NA,1702221360
269,vadso,70.0744,29.7487,-10.91,79,75,9.77,NO,1702221091
270,mlowo,-9.0,32.9833,21.54,80,87,1.08,TZ,1702221360
271,mahina,-17.5065,-149.489,25.87,83,40,1.54,PF,1702220972
272,mabaruma,8.2,-59.7833,30.92,56,14,2.13,GY,1702221361
273,harper,4.375,-7.7169,29.29,70,87,3.87,LR,1702221032
274,gunnedah,-30.9833,150.25,25.12,35,0,2.18,AU,1702221362
275,thal,35.4791,72.2439,0.48,39,100,3.82,PK,1702221363
276,puerto baquerizo moreno,-0.9,-89.6,24.0,85,23,4.85,EC,1702221054
277,bandarbeyla,9.4942,50.8122,26.2,75,10,8.99,SO,1702221363
278,salalah,17.0151,54.0924,26.05,53,0,1.54,OM,1702221364
279,marsh harbour,26.5412,-77.0636,25.29,69,94,8.08,BS,1702221364
280,akureyri,65.6835,-18.0878,-14.04,92,0,2.06,IS,1702221365
281,olyokminsk,60.3736,120.4264,-26.88,89,100,3.61,RU,1702221075
282,barah,13.7,30.3667,29.78,11,43,2.86,SD,1702221069
283,estevan,49.1334,-102.9842,-5.99,93,100,2.57,CA,1702221366
284,hamilton,39.1834,-84.5333,3.56,79,100,3.6,US,1702220970
285,horta,38.5333,-28.6333,18.8,79,75,8.94,PT,1702221367
286,sao felix do xingu,-6.6447,-51.995,36.82,36,63,1.81,BR,1702221103
287,flying fish cove,-10.4217,105.6791,24.82,83,75,5.66,CX,1702220921
288,port shepstone,-30.7414,30.455,19.57,83,100,5.39,ZA,1702221368
289,quthing,-30.4,27.7003,16.64,76,94,2.18,LS,1702221369
290,san juan,-31.5375,-68.5364,30.01,33,2,1.8,AR,1702221285
291,sarkand,45.41,79.9186,-8.6,84,100,1.35,KZ,1702221369
292,thinadhoo,0.5333,72.9333,28.41,73,92,1.01,MV,1702221370
293,boa vista,2.8197,-60.6733,30.99,51,20,6.17,BR,1702221370
294,walvis bay,-22.9575,14.5053,18.38,69,18,5.75,NA,1702220897
295,tahe,52.3333,124.7333,-22.57,63,0,5.17,CN,1702221371
296,tharyarwady,17.65,95.8,24.89,77,42,1.61,MM,1702221371
297,bom jesus,-9.0744,-44.3586,33.24,41,76,2.13,BR,1702221372
298,den burg,53.0542,4.7972,9.43,84,75,4.12,NL,1702221372
299,ilhabela,-23.7781,-45.3581,23.15,82,90,5.22,BR,1702221373
300,galle,6.0367,80.217,24.5,94,100,0.69,LK,1702221373
301,luderitz,-26.6481,15.1594,23.46,54,0,15.55,NA,1702220985
302,limon,10.0,-83.0333,27.94,89,75,3.6,CR,1702221374
303,dakhla,23.6848,-15.958,25.01,53,100,4.63,EH,1702221374
304,kiruna,67.8557,20.2251,-10.49,79,0,3.6,SE,1702221375
305,taoudenni,22.6783,-3.9836,25.39,12,11,10.15,ML,1702221134
306,nieuw amsterdam,5.8833,-55.0833,31.01,66,40,0.0,SR,1702221376
307,canatlan,24.5167,-104.7833,7.87,36,0,3.63,MX,1702221376
308,nuku'alofa,-21.1333,-175.2,22.19,88,20,1.54,TO,1702220978
309,luanda,-8.8368,13.2343,28.56,73,98,5.69,AO,1702221377
310,torghay,49.6339,63.4981,-18.89,72,26,6.14,KZ,1702221377
311,mweka,-4.85,21.5667,27.9,62,97,0.64,CD,1702221377
312,katabu,-4.9333,122.5167,25.25,91,85,1.3,ID,1702221378
313,lebu,-37.6167,-73.65,15.99,67,99,9.34,CL,1702220932
314,el aioun,34.5832,-2.5061,22.79,31,96,1.35,MA,1702221379
315,port hedland,-20.3167,118.5667,28.03,21,0,5.14,AU,1702220898
316,lakatoro,-16.0999,167.4164,24.89,78,100,5.1,VU,1702221379
317,port macquarie,-31.4333,152.9167,18.27,83,1,4.92,AU,1702220964
318,empangeni,-28.762,31.8933,19.07,96,100,3.32,ZA,1702221380
319,sturgis,41.7992,-85.4192,2.89,83,100,3.6,US,1702221380
320,mailsi,29.8003,72.1758,18.6,22,2,2.05,PK,1702221381
321,whakatane,-37.9585,176.9854,14.87,94,91,3.94,NZ,1702221381
322,nema,57.5067,50.5011,-26.93,99,67,2.1,RU,1702221381
323,freetown,8.484,-13.2299,30.84,66,40,4.12,SL,1702221382
324,canto do buriti,-8.11,-42.9444,35.37,36,54,3.64,BR,1702221382
325,baicheng,45.6167,122.8167,-17.49,62,12,2.28,CN,1702221383
326,rosarito,32.3333,-117.0333,14.58,20,3,3.67,MX,1702221383
327,ingeniero jacobacci,-41.3427,-69.5448,24.28,18,6,6.96,AR,1702221384
328,rio grande,-32.035,-52.0986,23.3,83,100,7.89,BR,1702221047
329,kalmunai,7.4167,81.8167,26.54,83,34,1.25,LK,1702220965
330,baiao,-2.7906,-49.6717,35.18,43,34,1.63,BR,1702221385
331,barcelos,41.5388,-8.6151,16.62,91,100,4.18,PT,1702221385
332,fougamou,-1.2154,10.5838,28.81,85,100,1.07,GA,1702221386
333,antsiranana,-12.2787,49.2917,27.0,81,96,6.43,MG,1702220930
334,tabuk,17.4189,121.4443,23.36,84,13,0.99,PH,1702221387
335,shelton,41.3165,-73.0932,14.1,85,100,5.66,US,1702221387
336,puerto san jose,13.9256,-90.8244,27.52,62,1,0.9,GT,1702221387
337,la'ie,21.6477,-157.9253,25.98,82,33,2.24,US,1702221039
338,pingliang,35.5392,106.6861,2.12,66,100,1.37,CN,1702221388
339,bubaque,11.2833,-15.8333,29.35,46,100,1.31,GW,1702221038
340,salekhard,66.53,66.6019,-31.27,100,96,2.72,RU,1702221389
341,isla vista,34.4133,-119.861,15.46,47,0,1.54,US,1702221389
342,kinablangan,7.6947,126.5503,25.39,86,37,1.67,PH,1702221390
343,inda silase,14.1031,38.2829,20.71,34,7,2.5,ET,1702221390
344,tual,-5.6667,132.75,28.92,77,100,6.33,ID,1702220954
345,funafuti,-8.5243,179.1942,28.0,94,75,6.69,TV,1702221391
346,stanley,54.868,-1.6985,5.95,94,75,3.09,GB,1702220916
347,alexandria,31.2156,29.9553,19.86,49,73,3.9,EG,1702221392
348,broome,42.2506,-75.833,12.21,93,100,3.6,US,1702220950
349,zambezi,-13.5432,23.1047,24.58,64,97,5.22,ZM,1702221392
350,wellington,-41.2866,174.7756,8.81,92,20,2.06,NZ,1702221393
351,laojunmiao,39.8333,97.7333,-5.67,61,99,0.55,CN,1702220926
352,motueka,-41.1333,173.0167,9.49,88,43,1.41,NZ,1702221394
353,kone,-21.0595,164.8658,22.77,74,100,2.15,NC,1702221394
354,nar'yan-mar,67.6713,53.087,-22.72,91,97,4.92,RU,1702220948
355,plettenberg bay,-34.0527,23.3716,18.54,70,5,4.14,ZA,1702221395
356,padang,-0.9492,100.3543,25.79,90,100,1.47,ID,1702221054
357,uturoa,-16.7333,-151.4333,26.58,82,65,8.4,PF,1702221015
358,nilsia,63.2,28.0833,-12.15,94,100,3.07,FI,1702221396
359,quiroga,19.6667,-101.5333,14.83,65,100,1.04,MX,1702221397
360,mount gambier,-37.8333,140.7667,14.9,88,100,5.01,AU,1702220952
361,camaqua,-30.8511,-51.8122,24.56,64,98,4.36,BR,1702221397
362,la mira tumbiscatio,18.6833,-102.2833,24.34,60,100,1.05,MX,1702221398
363,buka,40.8108,69.1986,2.79,62,100,1.75,UZ,1702221398
364,saurimo,-9.6608,20.3916,26.82,64,86,2.21,AO,1702221399
365,merrill,45.1805,-89.6835,-4.13,86,92,1.34,US,1702221399
366,oranjemund,-28.55,16.4333,19.91,68,3,8.68,NA,1702221400
367,ponnani,10.767,75.9252,26.62,85,65,2.34,IN,1702221400
368,thabazimbi,-24.5917,27.4116,23.62,59,100,5.55,ZA,1702220929
369,sinjar,36.3209,41.8754,13.56,72,75,1.73,IQ,1702221401
370,bryne,58.7354,5.6477,5.55,66,0,6.69,NO,1702221401
371,bamyan,34.75,67.25,-2.59,27,15,2.03,AF,1702221401
372,zaysan,47.4667,84.8667,-16.25,84,18,1.44,KZ,1702221402
373,dolinsk,47.35,142.8,-9.04,84,85,5.65,RU,1702221402
374,port lincoln,-34.7333,135.8667,14.74,92,100,12.12,AU,1702220914
375,allapalli,19.4167,80.0667,19.09,61,0,1.42,IN,1702221403
376,orchard homes,46.8633,-114.0484,0.15,95,100,0.89,US,1702221403
377,qarauyl,48.9451,79.255,-21.55,92,6,0.28,KZ,1702221404
378,ilanskiy,56.2358,96.065,-33.39,100,14,1.42,RU,1702221404
379,villa yapacani,-17.4,-63.8333,35.03,41,31,3.82,BO,1702221404
380,abalak,58.1286,68.5944,-29.25,97,18,2.78,RU,1702221405
381,tvoroyri,61.5556,-6.8111,7.32,90,100,12.97,FO,1702221405
382,yamada,39.4667,141.95,5.68,70,75,1.38,JP,1702220798
383,almaty,43.25,76.95,-8.05,93,100,2.0,KZ,1702221406
384,kudat,6.8837,116.8477,26.96,94,61,1.03,MY,1702221406
385,ad dabbah,18.05,30.95,26.52,13,69,1.73,SD,1702221406
386,cockburn town,21.4612,-71.1419,26.41,78,76,11.76,TC,1702220952
387,chernyshevskiy,63.0128,112.4714,-29.82,98,100,1.53,RU,1702221407
388,salinas,36.6777,-121.6555,13.37,45,0,3.6,US,1702221407
389,dingli,35.8614,14.3822,16.56,77,40,6.69,MT,1702221408
390,hami,42.8,93.45,-2.5,87,30,3.13,CN,1702220958
391,mizan teferi,6.9833,35.5833,21.26,71,66,0.57,ET,1702221408
392,minas de marcona,-15.2119,-75.1103,17.83,67,99,3.24,PE,1702221058
393,betio village,1.358,172.9211,27.02,76,96,1.52,KI,1702221409
394,antonio enes,-16.2325,39.9086,29.05,75,29,8.27,MZ,1702221409
395,kisangani,0.5167,25.2,23.04,91,100,0.67,CD,1702221410
396,bismarck,46.8083,-100.7837,-6.86,90,75,3.09,US,1702221216
397,williamsburg,37.2707,-76.7075,19.88,89,75,3.09,US,1702221170
398,masterton,-40.9597,175.6575,7.71,96,0,0.98,NZ,1702221411
399,vila velha,-20.3297,-40.2925,25.97,72,100,4.63,BR,1702221411
400,oliver,49.1831,-119.5524,3.14,87,84,2.06,CA,1702221411
401,altai,46.3722,96.2583,-15.67,59,1,4.11,MN,1702221412
402,tondi,9.7333,79.0167,26.94,80,79,6.6,IN,1702221412
403,talcahuano,-36.7167,-73.1167,20.82,46,0,6.69,CL,1702221412
404,guerrero negro,27.9769,-114.0611,14.56,38,0,1.57,MX,1702221133
405,tomaszow lubelski,50.4477,23.4162,-2.38,94,100,2.68,PL,1702221413
406,nikel,69.4128,30.222,-12.9,90,96,5.16,RU,1702221413
407,carutapera,-1.195,-46.02,30.25,63,70,4.55,BR,1702221071
408,arkhangel'sk,64.5401,40.5433,-16.94,77,0,6.0,RU,1702221414
409,ivdel',60.6911,60.4206,-27.67,100,100,0.89,RU,1702221414
410,nguigmi,14.2495,13.1092,28.12,22,63,6.1,NE,1702221415
411,awjilah,29.1081,21.2869,18.22,47,81,2.66,LY,1702220951
412,carnarvon,-24.8667,113.6333,27.57,37,0,5.21,AU,1702221127
413,lupane,-18.9315,27.807,36.12,20,50,4.67,ZW,1702221416
414,sao jose da coroa grande,-8.8978,-35.1478,28.64,58,94,5.02,BR,1702221416
415,alofi,-19.0595,-169.9187,26.2,75,100,8.61,NU,1702220994
416,esmeraldas,-19.7625,-44.3139,29.58,42,23,4.51,BR,1702221417
417,bardai,11.65,7.2333,30.9,8,79,4.02,NG,1702221417
418,vel'sk,61.0701,42.0983,-15.61,80,100,4.82,RU,1702221417
419,ilomantsi,62.6716,30.9328,-14.06,93,100,3.75,FI,1702221418
420,al jawf,29.5,38.75,21.92,41,100,1.95,SA,1702220933
421,klaksvik,62.2266,-6.589,7.51,85,100,13.14,FO,1702221418
422,howrah,22.5892,88.3103,21.0,64,0,0.0,IN,1702221419
423,gulf shores,30.246,-87.7008,19.03,77,100,3.6,US,1702221419
424,torremaggiore,41.6907,15.2963,10.48,76,82,10.07,IT,1702221420
425,forster,-32.1667,152.5167,21.32,83,0,6.17,AU,1702220925
426,gizo,-8.103,156.8419,27.37,76,62,2.49,SB,1702221420
427,tazovsky,67.4667,78.7,-33.1,95,44,3.36,RU,1702220927
428,seven pagodas,12.6264,80.1722,27.03,79,16,5.4,IN,1702221421
429,onega,63.9061,38.1404,-14.41,92,100,6.38,RU,1702221421
430,pindwara,24.8,73.0667,18.03,36,0,2.1,IN,1702221422
431,big spring,32.2504,-101.4787,0.69,62,0,1.79,US,1702221290
432,porto novo,6.4965,2.6036,31.9,59,43,4.7,BJ,1702221422
433,formosa do rio preto,-11.0483,-45.1931,35.82,31,23,3.64,BR,1702221423
434,alice springs,-23.7,133.8833,10.75,93,23,2.06,AU,1702221388
435,castillos,-34.1667,-53.8333,20.58,70,90,4.16,UY,1702221423
436,nova xavantina,-14.6667,-52.35,41.29,21,13,1.93,BR,1702221424
437,swift current,50.2834,-107.8014,-4.55,86,0,7.2,CA,1702221315
438,koungou,-12.7336,45.2042,28.84,79,0,8.23,YT,1702221425
439,mogok,22.9167,96.5,13.17,98,5,0.86,MM,1702221425
440,kara suu,40.7046,72.8667,1.98,86,100,1.0,KG,1702221425
441,arenapolis,-14.4503,-56.8461,37.98,33,58,1.46,BR,1702221426
442,san antonio de pale,-1.4014,5.6325,27.56,77,93,4.76,GQ,1702221042
443,baker,30.5882,-91.1682,12.12,61,0,8.23,US,1702221426
444,nadi,-17.8,177.4167,21.0,73,40,3.09,FJ,1702221010
445,nyala,12.05,24.8833,31.23,13,48,0.58,SD,1702221427
446,pangody,65.85,74.4859,-37.75,100,40,2.77,RU,1702221427
447,champerico,14.3,-91.9167,27.65,65,12,2.26,GT,1702221097
448,mariental,-24.6333,17.9667,30.82,14,0,6.93,NA,1702221428
449,vilyuysk,63.7553,121.6247,-27.41,96,100,3.39,RU,1702221428
450,ataq,14.5377,46.8319,20.41,19,0,4.13,YE,1702221429
451,santana,-0.0583,-51.1817,33.1,58,75,4.63,BR,1702221429
452,nizhneudinsk,54.9076,99.0276,-31.63,99,20,1.26,RU,1702221429
453,yunfu,22.9306,112.0373,22.16,80,14,1.27,CN,1702221430
454,vernon,50.2581,-119.2691,0.97,89,100,3.09,CA,1702221396
455,ad darb,17.7229,42.2526,27.78,62,23,2.52,SA,1702221431
456,karratha,-20.7377,116.8463,27.88,55,0,3.58,AU,1702220946
457,boca do acre,-8.7522,-67.3978,32.85,54,45,2.02,BR,1702221431
458,weno,7.4515,151.8468,28.5,71,96,8.68,FM,1702221108
459,tangalle,6.024,80.7911,25.51,89,100,2.33,LK,1702221432
460,belyy yar,53.6039,91.3903,-29.06,76,89,1.0,RU,1702221432
461,tsiombe,-25.3,45.4833,28.04,59,0,4.31,MG,1702220986
462,ponta delgada,37.7333,-25.6667,18.44,88,75,5.14,PT,1702221433
463,pacific grove,36.6177,-121.9166,13.14,69,0,0.0,US,1702221329
464,slyudyanka,51.6594,103.7061,-24.52,97,48,1.89,RU,1702221434
465,de aar,-30.6497,24.0123,25.18,21,2,8.49,ZA,1702221434
466,namibe,-15.1961,12.1522,25.87,72,36,4.93,AO,1702220957
467,norilsk,69.3535,88.2027,-29.21,99,100,2.54,RU,1702221435
468,kailua-kona,19.6406,-155.9956,23.66,74,0,1.79,US,1702220723
469,ibimirim,-8.5406,-37.6903,35.39,21,0,3.1,BR,1702221435
470,camana,-16.6228,-72.7111,22.44,71,13,3.56,PE,1702221024
471,belmonte,-15.8631,-38.8828,29.35,60,57,3.04,BR,1702221045
472,stephenville,32.2207,-98.2023,4.55,42,0,3.09,US,1702221437
473,hounde,11.5,-3.5167,35.47,6,37,3.45,BF,1702221437
474,erdenet,49.0333,104.0833,-24.38,99,100,0.44,MN,1702221437
475,hunucma,21.0167,-89.8667,25.61,73,69,2.11,MX,1702221438
476,morsi,21.3392,78.0131,20.61,51,0,1.41,IN,1702221438
477,saint-marc,19.1082,-72.6938,29.13,58,1,1.02,HT,1702221439
478,kikvidze,50.7416,43.0518,-5.79,48,99,6.29,RU,1702221439
479,vila franca do campo,37.7167,-25.4333,18.27,99,100,5.18,PT,1702221102
480,sinjai,-5.1241,120.253,25.47,85,100,1.93,ID,1702221099
481,naze,28.3667,129.4833,20.51,82,87,5.5,JP,1702221334
482,kirakira,-10.4544,161.9205,25.1,93,100,1.49,SB,1702221440
483,kayar,14.9192,-17.1211,35.53,29,72,4.79,SN,1702221441
484,port isabel,26.0734,-97.2086,14.02,48,0,8.75,US,1702221441
485,bulata,9.8599,122.4016,26.87,86,71,6.22,PH,1702221441
486,ust-tsilma,65.441,52.1498,-29.1,98,82,1.79,RU,1702221442
487,yelizovo,53.1873,158.3805,1.08,100,100,8.05,RU,1702221442
488,las tablas,7.7667,-80.2833,31.21,99,23,5.82,PA,1702221442
489,mont-dore,-22.2833,166.5833,20.99,73,100,3.39,NC,1702221443
490,garissa,-0.4536,39.6401,32.5,43,96,3.86,KE,1702221443
491,ostseebad binz,54.3999,13.6105,3.86,98,100,6.11,DE,1702221443
492,suntar,62.1444,117.6319,-26.68,94,100,3.46,RU,1702221444
493,verkh-chebula,56.0308,87.6218,-32.44,99,95,1.68,RU,1702221444
494,tabou,4.423,-7.3528,29.17,70,98,3.75,CI,1702221444
495,primero de enero,21.9469,-78.4283,28.72,66,68,6.59,CU,1702221445
496,portstewart,55.1813,-6.714,9.83,86,100,4.59,GB,1702221445
497,igarape miri,-1.975,-48.9597,34.13,46,94,1.87,BR,1702221446
498,ola,59.5833,151.2833,-2.14,82,100,11.44,RU,1702221077
499,marcavelica,-4.8778,-80.7053,26.56,55,65,3.05,PE,1702221446
500,trashi yangtse,27.6116,91.498,8.78,93,88,0.32,BT,1702221447
501,selfoss,63.9331,-20.9971,-2.75,78,44,2.93,IS,1702221104
502,caleta olivia,-46.4393,-67.5281,21.99,35,100,12.02,AR,1702221447
503,tofol,5.3248,163.0078,27.96,77,68,6.94,FM,1702221448
504,bamboo flat,11.7,92.7167,27.16,77,78,2.41,IN,1702220900
505,altay,47.8667,88.1167,-15.49,81,96,3.01,CN,1702221448
506,remire-montjoly,4.9167,-52.2667,31.02,62,75,5.14,GF,1702220988
507,mena,51.5217,32.2157,-1.05,97,100,3.25,UA,1702221449
508,al mijlad,11.0333,27.7333,34.46,12,3,1.93,SD,1702220907
509,newman,37.3138,-121.0208,1.19,59,100,1.1,US,1702221039
510,ulladulla,-35.35,150.4667,22.09,94,100,1.25,AU,1702221450
511,lompoc,34.6391,-120.4579,14.32,64,0,3.6,US,1702220978
512,gamboma,-1.8764,15.8644,30.1,63,90,1.34,CG,1702221451
513,kiama,-34.6833,150.8667,22.99,92,100,0.89,AU,1702221451
514,myanaung,18.2833,95.3167,24.93,79,30,0.98,MM,1702221451
515,sinop,41.7711,34.8709,6.24,87,35,0.89,TR,1702221452
516,lorengau,-2.0226,147.2712,27.22,85,100,5.97,PG,1702221088
517,batticaloa,7.7102,81.6924,26.87,82,45,1.95,LK,1702221452
518,campbellton,48.0075,-66.6727,2.25,98,100,2.11,CA,1702221453
519,figuig (centre),32.1089,-1.2286,21.17,31,37,1.25,MA,1702221453
520,wukari,7.85,9.7833,35.85,9,0,2.41,NG,1702221453
521,chul'man,56.8479,124.9104,-30.84,94,100,4.25,RU,1702221454
522,soio,-6.1349,12.3689,28.41,72,100,4.36,AO,1702221454
523,adrar,20.5022,-10.0711,28.48,14,43,8.5,MR,1702221454
524,bomdila,27.25,92.4,5.91,91,93,1.08,IN,1702221446
525,la puebla de montalban,39.863,-4.3592,15.29,75,67,4.03,ES,1702221455
526,athi river,-1.4507,36.9824,24.71,57,40,6.69,KE,1702221455
527,hoi an,15.8794,108.335,24.98,89,98,2.16,VN,1702221456
528,marka,1.7159,44.7717,27.37,80,79,6.56,SO,1702221456
529,banamba,13.55,-7.45,34.84,6,20,5.14,ML,1702221456
530,shenkursk,62.1091,42.896,-16.12,82,100,4.2,RU,1702221457
531,ebaye,8.7748,167.7392,25.01,83,40,5.66,MH,1702221457
532,shimanovsk,52.0,127.7,-22.89,72,0,5.53,RU,1702221457
533,emkhomazi,-30.2067,30.7978,19.49,87,100,5.57,ZA,1702221458
534,yichang,30.7144,111.2847,9.08,83,100,0.89,CN,1702221458
535,port moresby,-9.4431,147.1797,24.68,88,20,1.54,PG,1702221458
536,usinsk,65.9939,57.5281,-28.85,100,100,0.45,RU,1702221459
537,cabo san lucas,22.8909,-109.9124,21.17,53,0,4.63,MX,1702220928
538,erenhot,43.6475,111.9767,-11.21,40,100,7.49,CN,1702221119
539,uray,60.1247,64.7758,-35.63,99,6,1.79,RU,1702221460
540,lagos,6.5833,3.75,33.18,52,32,3.67,NG,1702221307
541,kodinsk,58.6881,99.1844,-33.09,100,32,0.6,RU,1702221030
542,lospalos,-8.5186,127.0025,24.02,89,81,1.23,TL,1702221461
543,sittwe,20.15,92.9,22.65,72,2,5.4,MM,1702221461
544,mogocha,53.7333,119.7667,-33.25,96,5,1.51,RU,1702221462
545,ghumarwin,31.45,76.7167,11.48,35,80,1.65,IN,1702221462
546,aras-asan,8.8908,126.3033,25.51,86,81,1.63,PH,1702221462
547,polyarnyy,69.1989,33.4478,-10.34,84,100,8.69,RU,1702221463
548,bhimunipatnam,17.8833,83.4333,23.73,71,3,2.13,IN,1702221463
549,saint-philippe,-21.3585,55.7679,26.77,86,98,6.25,RE,1702221018
550,ciudad constitucion,25.0369,-111.6644,16.84,55,0,3.33,MX,1702221022
551,gornopravdinsk,60.05,69.9,-30.3,95,14,2.62,RU,1702221464
552,mohr,54.3528,9.7167,7.3,98,99,1.54,DE,1702221464
553,el colomo,19.05,-104.25,22.99,50,100,0.86,MX,1702221465
554,atherton,53.5237,-2.4935,10.66,88,87,0.89,GB,1702221465
555,sorong,-0.8833,131.25,27.54,81,100,2.49,ID,1702220920
556,elbistan,38.2059,37.1983,7.11,82,99,1.19,TR,1702221466
557,barclayville,4.6797,-8.2339,29.1,69,84,4.9,LR,1702221466
558,kristiansund,63.1115,7.732,1.36,69,0,1.54,NO,1702221467
559,kings mountain,35.2451,-81.3412,16.58,84,100,1.54,US,1702221467
560,baker city,44.7749,-117.8344,5.91,90,100,3.6,US,1702221175
561,natal,-5.795,-35.2094,31.36,51,40,5.66,BR,1702220817
562,akjoujt,19.6969,-14.4164,32.86,11,0,8.21,MR,1702221095
563,lagunillas,10.1301,-71.2595,30.62,61,13,2.5,VE,1702221468
564,chinchilla,-26.75,150.6333,20.09,68,0,5.95,AU,1702221468
565,soroti,1.7146,33.6111,23.77,71,68,1.22,UG,1702221469
566,ta`u,-14.2336,-169.5144,24.12,93,100,4.31,AS,1702220937
567,salmon arm,50.6998,-119.3024,0.8,100,98,1.03,CA,1702221469
568,ibshaway,29.358,30.6814,20.0,31,23,2.64,EG,1702221470
569,fort-shevchenko,44.5086,50.263,-0.78,95,100,8.09,KZ,1702221470
570,mawu,29.5923,107.3139,13.53,91,99,0.82,CN,1702221471
571,morozovsk,48.3539,41.8261,-2.48,73,100,7.09,RU,1702221471
572,santiago de cao,-7.9589,-79.2392,22.07,68,60,5.66,PE,1702221471
573,kapchorwa,1.3965,34.4509,17.23,81,96,1.59,UG,1702221472
574,pali,25.7667,73.3333,19.26,28,0,1.75,IN,1702221472
575,ovruch,51.3246,28.8035,-0.98,96,100,3.23,UA,1702221472
576,alvand,36.3187,49.1678,7.81,41,5,4.35,IR,1702221473
577,atamyrat,37.8357,65.2106,11.3,43,18,3.26,TM,1702221473
578,el calafate,-50.3408,-72.2768,11.53,59,100,3.77,AR,1702221473
579,kenai,60.5544,-151.2583,-7.7,92,75,3.6,US,1702221197
580,ostersund,63.1792,14.6357,-4.1,100,100,6.17,SE,1702220952
581,alaghsas,17.0187,8.0168,28.09,12,3,6.26,NE,1702220956
582,mundri,-6.9558,111.71,25.16,91,100,0.16,ID,1702221475
583,ulaangom,49.9811,92.0667,-23.0,90,100,2.39,MN,1702221475
584,itoman,26.1247,127.6694,22.01,78,4,2.06,JP,1702220949
585,artigas,-30.4,-56.4667,26.08,52,0,5.63,UY,1702221476
586,manicore,-5.8092,-61.3003,36.3,41,99,0.81,BR,1702221113
